business_status,formatted_address,name,opening_hours,place_id,plus_code,rating,types,user_ratings_total,permanently_closed,tag,price_level,results,lat,long
OPERATIONAL,"Calangute-Anjuna Main Road, Padre Agnel Vaddo, Gauvaddi, Anjuna, Near Double Tree Hilton Hotel, Bardez, Goa 403509, India",Splashdown Waterpark,{},ChIJMS8RWSXqvzsRD_BatlAomOk,"{'compound_code': 'HQH5+JG Anjuna, Goa', 'global_code': '7J7MHQH5+JG'}",3.7,"['tourist_attraction', 'amusement_park', 'point_of_interest', 'establishment']",1142,-1,amusement_park,-1,-1,15.579003,73.758791
OPERATIONAL,"Padi, Goa 403703, India",Nagesh Jungle Resort,{},ChIJLZDpFL5RvjsRyRdfAtsHfVs,"{'compound_code': '33Q4+QP Maina, Goa', 'global_code': '7J7P33Q4+QP'}",3.6,"['amusement_park', 'point_of_interest', 'establishment']",119,-1,amusement_park,-1,-1,15.0893788,74.056812
OPERATIONAL,"Quepem Market Road, Nirmal Nagar, Xeldem, Goa 403705, India",6 Shades Of Nature,{'open_now': True},ChIJk1VOXR2tvzsRBYY5TB4bVgI,"{'compound_code': '63QG+3G Xeldem, Goa', 'global_code': '7J7P63QG+3G'}",3.9,"['amusement_park', 'point_of_interest', 'establishment']",404,-1,amusement_park,-1,-1,15.2377093,74.0763556
OPERATIONAL,"Gudi, Quepem Rd, Chandor, Goa 403714, India",Nagesh Love Forest,{'open_now': False},ChIJNShtiX6tvzsRfW6eUqD5Xtc,"{'compound_code': '62RM+W2 Chandor, Goa', 'global_code': '7J7P62RM+W2'}",3.6,"['tourist_attraction', 'amusement_park', 'point_of_interest', 'establishment']",262,-1,amusement_park,-1,-1,15.2423522,74.0325208
CLOSED_TEMPORARILY,"Pitre Estate , Mapusa, Highway, Karapur, Sanquelim, Goa 403505, India",Sharvraj Eco Farm Goa,-1,ChIJkX-4XUuXvzsRiOwonUMxfo8,"{'compound_code': 'HXFX+W4 Sanquelim, Goa', 'global_code': '7J7MHXFX+W4'}",3.9,"['amusement_park', 'lodging', 'restaurant', 'food', 'point_of_interest', 'establishment']",332,TRUE,amusement_park,-1,-1,15.574779,73.9977613
CLOSED_TEMPORARILY,"Pateapur, Nuvem, Goa 403604, India",Froggyland,-1,ChIJfygMViSxvzsRqXra1Y0GOm4,"{'compound_code': '8XC2+MQ Nuvem, Goa', 'global_code': '7J7M8XC2+MQ'}",4,"['tourist_attraction', 'amusement_park', 'point_of_interest', 'establishment']",1110,TRUE,amusement_park,-1,-1,15.321632,73.9519311
CLOSED_TEMPORARILY,"Baga-Arpora road, near Goan Beach club, Arpora, Goa 403516, India",Blue Whale Water Park,-1,ChIJ6z7MiyHqvzsRK5bfx4qcJTY,"{'compound_code': 'HQ93+J9 Arpora, Goa', 'global_code': '7J7MHQ93+J9'}",3.5,"['tourist_attraction', 'amusement_park', 'point_of_interest', 'establishment']",191,TRUE,amusement_park,-1,-1,15.5690863,73.7534674
CLOSED_TEMPORARILY,"Near Pascol farm, (Opposite Nestle factory), Tisk road, Ponda, Khandepar, Goa 403406, India",Nagesh Water World,-1,ChIJCR5nGxelvzsRHCjJA0c6jnA,"{'compound_code': 'C385+WH Khandepar, Goa', 'global_code': '7J7PC385+WH'}",3.6,"['tourist_attraction', 'amusement_park', 'point_of_interest', 'establishment']",755,TRUE,amusement_park,-1,-1,15.4173318,74.0589388
CLOSED_PERMANENTLY,"Grand Chivar, Anjuna,Bardez, Goa 403509, India",anjuna holiday homes,-1,ChIJVVVVVajsvzsRg9MyKHKmKAQ,"{'compound_code': 'HPJV+9W Mazal Waddo, Anjuna, Goa', 'global_code': '7J7MHPJV+9W'}",4.3,"['amusement_park', 'point_of_interest', 'establishment']",3,TRUE,amusement_park,-1,-1,15.5809248,73.7448437
CLOSED_TEMPORARILY,"Mandrem, Goa 403527, India",Mandrem Goa Campsite,-1,ChIJjVdUKYTuvzsRUT4Y0bGlEZY,"{'compound_code': 'MPFQ+HP Mandrem, Goa', 'global_code': '7J7MMPFQ+HP'}",4.1,"['campground', 'lodging', 'park', 'point_of_interest', 'establishment']",29,TRUE,campground,-1,-1,15.673939,73.7393416
CLOSED_TEMPORARILY,"Waterfalls Rd, Kulem, Goa 403410, India",Jungle Book / Jungle Cafe,-1,ChIJ_Z0nmhMHvzsRN_MpOVMq4t4,"{'compound_code': '86QV+2X Kulem, Goa', 'global_code': '7J7P86QV+2X'}",4,"['campground', 'lodging', 'park', 'point_of_interest', 'establishment']",2043,TRUE,campground,-1,-1,15.3375293,74.244951
CLOSED_TEMPORARILY,"Unnamed Road, Parra,, Goa 403509, India",Parra Ground,-1,ChIJFX-l60XqvzsRqvRF97TcKS4,"{'compound_code': 'HQHH+Q9 Parra, Goa', 'global_code': '7J7MHQHH+Q9'}",4,"['campground', 'lodging', 'park', 'point_of_interest', 'establishment']",24,TRUE,campground,-1,-1,15.5794189,73.7784552
OPERATIONAL,"Colva Beach Rd, Mungul, Margao, Goa 403601, India",Roque Santana Cotta Farm Grove,{'open_now': True},ChIJs8rA7eOzvzsRSCqTBcYRTA4,"{'compound_code': '7XJ2+RW Margao, Goa', 'global_code': '7J7M7XJ2+RW'}",4,"['campground', 'lodging', 'park', 'point_of_interest', 'establishment']",29,-1,campground,-1,-1,15.2820145,73.9522903
CLOSED_TEMPORARILY,"Govt. School Road Satchebhatle, Mandrem, Mandrem, Goa 403512, India",The Moustache Mermaid Camping,-1,ChIJbaJK-GTvvzsRmeuDTQ9zubY,"{'compound_code': 'MP7R+6Q Mandrem, Goa', 'global_code': '7J7MMP7R+6Q'}",5,"['campground', 'lodging', 'park', 'point_of_interest', 'establishment']",1,TRUE,campground,-1,-1,15.6631077,73.7419017
CLOSED_TEMPORARILY,"SY 408 - Hankon village, Karwar Taluka,, Karwar, Karnataka 581317, India",Camp Riveredge Paradise,-1,ChIJ10ABGs5gvjsRZcsHwXF7GGE,"{'compound_code': 'V6R3+77 Karwar, Karnataka', 'global_code': '7J6PV6R3+77'}",4.5,"['campground', 'rv_park', 'lodging', 'park', 'point_of_interest', 'establishment']",60,TRUE,campground,-1,-1,14.890661,74.203214
CLOSED_TEMPORARILY,"109/3 Guruwal, Agonda, Goa 403702, India",Credo Jungle Resort - Agonda,-1,ChIJAxsNA5RPvjsRipzHgoQz0zI,"{'compound_code': '22P2+J9 Agonda, Goa', 'global_code': '7J7P22P2+J9'}",4.4,"['campground', 'lodging', 'park', 'restaurant', 'food', 'point_of_interest', 'establishment']",83,TRUE,campground,-1,-1,15.0365232,74.0008825
CLOSED_TEMPORARILY,"H.No. 1513, Polem Beach, Loliem, Canacona, Goa 403728, India",Kamaxi Beach Resort,-1,ChIJ4bKFE15cvjsRw4VKytp5XeY,"{'compound_code': 'W36J+27 Canacona, Goa', 'global_code': '7J6PW36J+27'}",3.9,"['campground', 'lodging', 'park', 'point_of_interest', 'establishment']",377,TRUE,campground,-1,-1,14.9100386,74.0807066
OPERATIONAL,"H.No-774/3,flea market road Near Joe Bananas, close to Curlies St Micheal vaddo, Anjuna, Goa 403509, India",Roma John Guest House,{'open_now': True},ChIJt_n1rIvpvzsRBVPcONnIjyQ,"{'compound_code': 'HPCV+4W Anjuna, Goa', 'global_code': '7J7MHPCV+4W'}",4.5,"['campground', 'lodging', 'park', 'point_of_interest', 'establishment']",34,-1,campground,-1,-1,15.570341,73.7447928
OPERATIONAL,"Fatrade Rd, Fatrade, Varca, Goa 403721, India",Asian Holiday Homes,{'open_now': True},ChIJSyqdgcq1vzsRM6cH42BX6UQ,"{'compound_code': '6WGM+CP Varca, Goa', 'global_code': '7J7M6WGM+CP'}",5,"['campground', 'lodging', 'park', 'point_of_interest', 'establishment']",1,-1,campground,-1,-1,15.2261221,73.9342799
OPERATIONAL,"Near Goan Cafe, Vithaldas Vaddo, Morjim Beach Road, Morjim, Goa 403512, India",Lobos Paradise || Beach Resort,{'open_now': True},ChIJ63__9k3pvzsRcL9boKxr0fQ,"{'compound_code': 'JPGJ+C6 Morjim, Goa', 'global_code': '7J7MJPGJ+C6'}",5,"['campground', 'lodging', 'park', 'restaurant', 'food', 'point_of_interest', 'establishment']",1,-1,campground,-1,-1,15.6261124,73.7306209
CLOSED_TEMPORARILY,"lakhere, Borden, Bicholim, Goa 403504, India",jiya Farm With Swimming Pool,-1,ChIJt6LhBWWXvzsRMgOT4ZvjCpw,"{'compound_code': 'HXW6+PH Borden, Bicholim, Goa', 'global_code': '7J7MHXW6+PH'}",4,"['campground', 'lodging', 'park', 'point_of_interest', 'establishment']",4,TRUE,campground,-1,-1,15.5968166,73.9614207
OPERATIONAL,"Junas Waddo, next to Dunes Holiday Village, Mandrem, Goa 403527, India",Olive House,{'open_now': True},ChIJ26v_we_uvzsR_a1Smak3d0Y,"{'compound_code': 'MP77+WH Mandrem, Goa', 'global_code': '7J7MMP77+WH'}",4.2,"['car_rental', 'campground', 'lodging', 'park', 'point_of_interest', 'establishment']",6,-1,campground,-1,-1,15.664785,73.713913
OPERATIONAL,"Dr Alfonso Rd, Opp. Nobel House, Tivai Vaddo, Bardez, Calangute, Goa, 403516, India",Amigos Guest House,{'open_now': True},ChIJGceFj-TBvzsRm_O2IHTwnCQ,"{'compound_code': 'GQQ6+GQ Calangute, Goa', 'global_code': '7J7MGQQ6+GQ'}",4.3,"['campground', 'real_estate_agency', 'travel_agency', 'lodging', 'park', 'restaurant', 'food', 'point_of_interest', 'establishment']",51,-1,campground,-1,-1,15.538843,73.7619
CLOSED_TEMPORARILY,"North Goa Surla, Sancordem, Goa 403406, India",Natures Nest Goa,-1,ChIJIb7U4nKxvzsRLDNZYl4vVY4,"{'compound_code': 'C662+84 Sancordem, Goa', 'global_code': '7J7PC662+84'}",4.4,"['lodging', 'park', 'point_of_interest', 'establishment']",232,TRUE,campground,-1,-1,15.4108501,74.2003157
CLOSED_TEMPORARILY,"FF-2, Antoneta Apartments, No. 5, St Joaquim Road, Borda, Margao, Goa 403602, India",Verdant Trails,-1,ChIJd7MaQYCxvzsRqy_8f0B_tM8,"{'compound_code': '7XMC+H9 Borda, Margao, Goa', 'global_code': '7J7M7XMC+H9'}",0,"['park', 'point_of_interest', 'establishment']",0,TRUE,campground,-1,-1,15.2839283,73.9709218
CLOSED_TEMPORARILY,"Kali River Garden, Karwar, Karnataka 581303, India",Kali River Garden Camping,-1,ChIJP2iNDnlhvjsRPprxnDiQtC0,"{'compound_code': 'R4PM+WF Karwar, Karnataka', 'global_code': '7J6PR4PM+WF'}",4.3,"['campground', 'lodging', 'park', 'point_of_interest', 'establishment']",3,TRUE,campground,-1,-1,14.8373748,74.1336566
OPERATIONAL,"Surla, Goa 403406, India",Backwoods Camp,-1,ChIJcatf40EJvzsRKjN_fMlG6o0,"{'compound_code': 'C6QM+MF Surla, Goa', 'global_code': '7J7PC6QM+MF'}",5,"['lodging', 'point_of_interest', 'establishment']",5,-1,campground,-1,-1,15.4391836,74.233736
CLOSED_TEMPORARILY,"Off National Highway 4, Goa Velha, Goa 403110, India",Catholic Church of St. Francis of Assisi,-1,ChIJ78JjO_O-vzsRRzk9_PvVgE0,"{'compound_code': 'GW36+6F Goa Velha, Goa', 'global_code': '7J7MGW36+6F'}",4.5,"['tourist_attraction', 'church', 'place_of_worship', 'point_of_interest', 'establishment']",1888,TRUE,church,-1,-1,15.5030684,73.9112497
CLOSED_TEMPORARILY,"Old Goa Rd, Bainguinim, Goa 403402, India",Basilica of Bom Jesus,-1,ChIJiQKbufK-vzsRuKcVn2hWgB4,"{'compound_code': 'GW26+9M Bainguinim, Goa', 'global_code': '7J7MGW26+9M'}",4.5,"['tourist_attraction', 'church', 'place_of_worship', 'point_of_interest', 'establishment']",30674,TRUE,church,-1,-1,15.5008938,73.9116272
OPERATIONAL,"Goa Velha, Goa 403402, India",Church of St. Cajetan,-1,ChIJPzptf4u-vzsRYl7FhM9LGJc,"{'compound_code': 'GW48+62 Goa Velha, Goa', 'global_code': '7J7MGW48+62'}",4.6,"['tourist_attraction', 'church', 'place_of_worship', 'point_of_interest', 'establishment']",589,-1,church,-1,-1,15.5055969,73.9150423
CLOSED_TEMPORARILY,"Velha, Goa 403402, India",Se Cathedral,-1,ChIJE0a0LfO-vzsR8JyKJEBHTMk,"{'compound_code': 'GW36+HV Goa Velha, Goa', 'global_code': '7J7MGW36+HV'}",4.5,"['tourist_attraction', 'church', 'place_of_worship', 'point_of_interest', 'establishment']",4258,TRUE,church,-1,-1,15.5038769,73.9121918
CLOSED_TEMPORARILY,"Bainguinim, Goa 403110, India",Church of Our Lady of the Rosary,-1,ChIJ89dPoPG-vzsRpKOATjYJRvE,"{'compound_code': 'GW23+PX Bainguinim, Goa', 'global_code': '7J7MGW23+PX'}",4.4,"['church', 'place_of_worship', 'point_of_interest', 'establishment']",52,TRUE,church,-1,-1,15.501778,73.9049807
CLOSED_TEMPORARILY,"Goa Velha, Goa 403110, India",Chapel of Our Lady of the Mount,-1,ChIJW9QdZo--vzsRdSugrHnV5Gw,"{'compound_code': 'GW3F+R8 Goa Velha, Goa', 'global_code': '7J7MGW3F+R8'}",4.5,"['tourist_attraction', 'church', 'place_of_worship', 'point_of_interest', 'establishment']",1089,TRUE,church,-1,-1,15.5045002,73.9233584
CLOSED_TEMPORARILY,"Monte Santo,, Goa Velha, Goa 403110, India",Church and Convent of St. John of God,-1,ChIJWbMUFfK-vzsRxQGL0-uPxFM,"{'compound_code': 'GW25+84 Goa Velha, Goa', 'global_code': '7J7MGW25+84'}",4.5,"['tourist_attraction', 'church', 'place_of_worship', 'point_of_interest', 'establishment']",20,TRUE,church,-1,-1,15.5007694,73.9078111
CLOSED_TEMPORARILY,"Bom Jesus church, Ella Goa, Goa 403402, India",Cross Of Basilica Bom Jesus,-1,ChIJw8S7tfK-vzsR5NDN4VhVNjg,"{'compound_code': 'GW26+9V Goa Velha, Goa', 'global_code': '7J7MGW26+9V'}",4.4,"['church', 'place_of_worship', 'point_of_interest', 'establishment']",185,TRUE,church,-1,-1,15.5009985,73.912218
CLOSED_TEMPORARILY,"Goa Velha, Goa 403110, India",São Pedro Church,-1,ChIJ624yk_q-vzsRS1inwISMJ4Y,"{'compound_code': 'GV2W+4V Goa Velha, Goa', 'global_code': '7J7MGV2W+4V'}",4.5,"['tourist_attraction', 'church', 'place_of_worship', 'point_of_interest', 'establishment']",75,TRUE,church,-1,-1,15.5003089,73.8972487
CLOSED_TEMPORARILY,"Bainguinim, Goa 403110, India",Royal Chapel of St. Anthony,-1,ChIJ4TTwkvG-vzsR_nQNomX0_H8,"{'compound_code': 'GW24+77 Bainguinim, Goa', 'global_code': '7J7MGW24+77'}",4.5,"['tourist_attraction', 'church', 'place_of_worship', 'point_of_interest', 'establishment']",10,TRUE,church,-1,-1,15.5006988,73.9056926
CLOSED_TEMPORARILY,"Ella, Goa 403402, India",Chapel of St. Francis Xavier,-1,ChIJL5VuzY--vzsRomHlFP3bsyI,"{'compound_code': 'GW29+8M Ella, Goa', 'global_code': '7J7MGW29+8M'}",4.4,"['tourist_attraction', 'church', 'place_of_worship', 'point_of_interest', 'establishment']",196,TRUE,church,-1,-1,15.5007507,73.9192269
CLOSED_TEMPORARILY,"Goa Velha, Goa 403110, India",Our Lady Of Miracles Church,-1,ChIJN1VVpu2-vzsRlQkcMrUJn4A,"{'compound_code': 'FWR7+X9 Goa Velha, Goa', 'global_code': '7J7MFWR7+X9'}",4.7,"['tourist_attraction', 'church', 'place_of_worship', 'point_of_interest', 'establishment']",75,TRUE,church,-1,-1,15.4924326,73.9134459
CLOSED_TEMPORARILY,"Goa Velha, Goa 403110, India",Old Goa Book Stall (Jivitacho Sondex),-1,ChIJUaDp2fK-vzsR-hP5gyIRAOc,"{'compound_code': 'GW36+HX Goa Velha, Goa', 'global_code': '7J7MGW36+HX'}",4.5,"['tourist_attraction', 'church', 'place_of_worship', 'point_of_interest', 'establishment']",17,TRUE,church,-1,-1,15.5038813,73.9123756
CLOSED_TEMPORARILY,"Old Goa Rd, Samper, Goa 403110, India",St. Peter's Church,-1,ChIJGXmddo2-vzsREFxFNNMNjFc,"{'compound_code': 'GW28+93 Goa Velha, Goa', 'global_code': '7J7MGW28+93'}",3,"['point_of_interest', 'establishment']",1,TRUE,church,-1,-1,15.500979,73.9151666
CLOSED_TEMPORARILY,"Goa Velha, Goa 403110, India",Church of Our Lady of Grace,-1,ChIJxapT8fG-vzsRv5zxNSl-WWI,"{'compound_code': 'GW24+3C Goa Velha, Goa', 'global_code': '7J7MGW24+3C'}",4.4,"['church', 'place_of_worship', 'point_of_interest', 'establishment']",960,TRUE,church,-1,-1,15.5002453,73.9061058
CLOSED_TEMPORARILY,"North Goa, Goa 403110, India",Chapel of St. Catherine of Alexandria,-1,ChIJNcH7EPO-vzsRl1RKlSloJoI,"{'compound_code': 'GW36+95 Goa Velha, Goa', 'global_code': '7J7MGW36+95'}",4.3,"['tourist_attraction', 'church', 'place_of_worship', 'point_of_interest', 'establishment']",96,TRUE,church,-1,-1,15.503375,73.910435
CLOSED_TEMPORARILY,"Navelcar Hill City, Bainguinim, Goa Velha, 403402, India",Shiloh Prayer Fellowship Church,-1,ChIJYXVmNKO_vzsR15mkEDom-og,"{'compound_code': 'FVRW+8J Goa Velha, Goa', 'global_code': '7J7MFVRW+8J'}",0,"['church', 'place_of_worship', 'point_of_interest', 'establishment']",0,TRUE,church,-1,-1,15.4907915,73.8965984
CLOSED_TEMPORARILY,"Monte Santo, Goa Velha, Goa 403110, India",Convent of Santa Monica and The Chapel of The Weeping Cross,-1,ChIJ1TGrOvK-vzsR97M1pNwn4yY,"{'compound_code': 'GW24+HX Goa Velha, Goa', 'global_code': '7J7MGW24+HX'}",4.7,"['tourist_attraction', 'place_of_worship', 'point_of_interest', 'establishment']",43,TRUE,church,-1,-1,15.5013889,73.9075
CLOSED_TEMPORARILY,"Talaulim, Goa 403110, India",St. Anne's Church,-1,ChIJLQE-VNi-vzsRz50PIq-vPYQ,"{'compound_code': 'FVHR+6M Talaulim, Goa', 'global_code': '7J7MFVHR+6M'}",4.6,"['tourist_attraction', 'church', 'place_of_worship', 'point_of_interest', 'establishment']",124,TRUE,church,-1,-1,15.4781079,73.891706
CLOSED_TEMPORARILY,"Tiswadi, Carambolim, Corlim, Goa 403110, India",St. John Facundo Church,-1,ChIJB94pyyG8vzsRQSPWJFZ_MLA,"{'compound_code': 'FWQM+QW Corlim, Goa', 'global_code': '7J7MFWQM+QW'}",4.5,"['church', 'place_of_worship', 'point_of_interest', 'establishment']",33,TRUE,church,-1,-1,15.489442,73.9347502
CLOSED_TEMPORARILY,"Goa Velha, Goa 403110, India",Ganpati Temple,-1,ChIJZRk_8bK_vzsRJgpy5vqZ6U0,"{'compound_code': 'GW38+M8 Goa Velha, Goa', 'global_code': '7J7MGW38+M8'}",5,"['hindu_temple', 'place_of_worship', 'point_of_interest', 'establishment']",2,TRUE,hindu_temple,-1,-1,15.5041957,73.9157511
CLOSED_TEMPORARILY,"Old Goa, Goa Velha, Goa 403110, India",shiva Temple,-1,ChIJwZq-RI2-vzsRhPXhc6357bM,"{'compound_code': 'GW27+69 Goa Velha, Goa', 'global_code': '7J7MGW27+69'}",4.3,"['hindu_temple', 'place_of_worship', 'point_of_interest', 'establishment']",10,TRUE,hindu_temple,-1,-1,15.5005763,73.9134984
CLOSED_TEMPORARILY,"National Highway 4A, Goa Velha, Goa 403110, India",Baingineshwar Shrine,-1,ChIJ2bUvbfC-vzsRWrSTnz5ALI0,"{'compound_code': 'GW22+4J Goa Velha, Goa', 'global_code': '7J7MGW22+4J'}",4.5,"['hindu_temple', 'place_of_worship', 'point_of_interest', 'establishment']",21,TRUE,hindu_temple,-1,-1,15.5003618,73.901588
CLOSED_TEMPORARILY,"NH748, Carambolim, Corlim, Goa 403110, India",Vanadevi Mandir,-1,ChIJJTd0EZy-vzsRR4zffAeOWDs,"{'compound_code': 'FWXJ+25 Carambolim, Corlim, Goa', 'global_code': '7J7MFWXJ+25'}",3.7,"['hindu_temple', 'place_of_worship', 'point_of_interest', 'establishment']",6,TRUE,hindu_temple,-1,-1,15.4975965,73.9304379
CLOSED_TEMPORARILY,"Naroa, Goa 403403, India",Masana Mandir Talewadi Goa,-1,ChIJyQV7_je_vzsRK0r_LqGiRFk,"{'compound_code': 'GWJG+66 Naroa, Goa', 'global_code': '7J7MGWJG+66'}",0,"['hindu_temple', 'place_of_worship', 'point_of_interest', 'establishment']",0,TRUE,hindu_temple,-1,-1,15.5306074,73.9256246
CLOSED_TEMPORARILY,"Tiswadi, Goa 403110, India",Sai Baba Temple,-1,ChIJhVaKG5e-vzsRQMutH10ouiE,"{'compound_code': 'FWVC+4M Tiswadi, Goa', 'global_code': '7J7MFWVC+4M'}",4.2,"['hindu_temple', 'place_of_worship', 'point_of_interest', 'establishment']",18,TRUE,hindu_temple,-1,-1,15.4928382,73.9216631
CLOSED_TEMPORARILY,"Unnamed Road, Ella, Goa 403110, India",Gomanteshwar Temple,-1,ChIJU1UQHje_vzsR6lqict6E4Pc,"{'compound_code': 'FWQ8+XM Ella, Goa', 'global_code': '7J7MFWQ8+XM'}",4.4,"['hindu_temple', 'place_of_worship', 'point_of_interest', 'establishment']",21,TRUE,hindu_temple,-1,-1,15.4899934,73.9166392
CLOSED_TEMPORARILY,"Betqui, Goa 403107, India",My Place Goa,-1,ChIJhXH59cS9vzsREO-avC5VuvU,"{'compound_code': 'GX75+RQ Betqui, Goa', 'global_code': '7J7MGX75+RQ'}",0,"['hindu_temple', 'place_of_worship', 'point_of_interest', 'establishment']",0,TRUE,hindu_temple,-1,-1,15.514563,73.9594096
CLOSED_TEMPORARILY,"Near Hotel Wilsha, Dimension residency, Carambolim, Goa, India",Gaon Purush temple,-1,ChIJp1Jn-0i_vzsRuCHU8vGqf04,"{'compound_code': 'FWPF+7C Carambolim, Corlim, Goa', 'global_code': '7J7MFWPF+7C'}",0,"['hindu_temple', 'place_of_worship', 'point_of_interest', 'establishment']",0,TRUE,hindu_temple,-1,-1,15.4857237,73.9235577
CLOSED_TEMPORARILY,"Carambolim, Corlim, Goa 403110, India",Datta Temple,-1,ChIJfancwMG_vzsRBbUwXHwzBVc,"{'compound_code': 'FWMM+MJ Carambolim, Corlim, Goa', 'global_code': '7J7MFWMM+MJ'}",5,"['hindu_temple', 'place_of_worship', 'point_of_interest', 'establishment']",2,TRUE,hindu_temple,-1,-1,15.4841295,73.9341077
CLOSED_TEMPORARILY,"Carambolim, Ella, Goa 403110, India",Shri Krishna Temple,-1,ChIJ3w2NqoG-vzsRUKTM23uwPuQ,"{'compound_code': 'GW5M+V7 Carambolim, Corlim, Goa', 'global_code': '7J7MGW5M+V7'}",3.4,"['hindu_temple', 'place_of_worship', 'point_of_interest', 'establishment']",5,TRUE,hindu_temple,-1,-1,15.509633,73.9331258
CLOSED_TEMPORARILY,"Carambolim, Corlim, Goa 403110, India",Kamlavati Temple,-1,ChIJZTOQMKG-vzsRqR9yqpe5jn0,"{'compound_code': 'FWMJ+WR Carambolim, Corlim, Goa', 'global_code': '7J7MFWMJ+WR'}",4.3,"['hindu_temple', 'place_of_worship', 'point_of_interest', 'establishment']",18,TRUE,hindu_temple,-1,-1,15.4847767,73.9320743
CLOSED_TEMPORARILY,"Carambolim, Gandaulim, Goa 403110, India",Mahalaxmi Temple,-1,ChIJU-x0cCy8vzsRuMrVeiCL0k8,"{'compound_code': 'GW5R+VX Carambolim, Corlim, Goa', 'global_code': '7J7MGW5R+VX'}",4.5,"['hindu_temple', 'place_of_worship', 'point_of_interest', 'establishment']",8,TRUE,hindu_temple,-1,-1,15.5097419,73.9424954
CLOSED_TEMPORARILY,"Tiswadi, Goa 403006, India",Maruti Temple,-1,ChIJeQSxBj6_vzsRDumZiirvkVI,"{'compound_code': 'FVMC+XC Tiswadi, Goa', 'global_code': '7J7MFVMC+XC'}",5,"['hindu_temple', 'place_of_worship', 'point_of_interest', 'establishment']",1,TRUE,hindu_temple,-1,-1,15.4848814,73.8710018
CLOSED_TEMPORARILY,"Malar, Goa 403403, India",Brahman Temple,-1,ChIJT_12DXi_vzsR2fK21Alyxnk,"{'compound_code': 'GWC8+F8 Malar, Goa', 'global_code': '7J7MGWC8+F8'}",4.9,"['hindu_temple', 'place_of_worship', 'point_of_interest', 'establishment']",9,TRUE,hindu_temple,-1,-1,15.5211626,73.9158547
CLOSED_TEMPORARILY,"Mangaddo, Gandaulim, Goa 403110, India",Santoshi Maa Temple,-1,ChIJo6kKkii8vzsRTf6eE-cQe0c,"{'compound_code': 'GW3Q+5V Gandaulim, Goa', 'global_code': '7J7MGW3Q+5V'}",4.2,"['hindu_temple', 'place_of_worship', 'point_of_interest', 'establishment']",11,TRUE,hindu_temple,-1,-1,15.502884,73.9396599
CLOSED_TEMPORARILY,"Tiswadi, Goa 403006, India",Naga Temple,-1,ChIJbV4oij2_vzsRw7ElAHf3vI8,"{'compound_code': 'FVPF+47 Tiswadi, Goa', 'global_code': '7J7MFVPF+47'}",4,"['hindu_temple', 'place_of_worship', 'point_of_interest', 'establishment']",3,TRUE,hindu_temple,-1,-1,15.4852882,73.8731372
CLOSED_TEMPORARILY,"Ribandar, Goa 403006, India",Shivling,-1,ChIJk1wjNg6_vzsR2jziD3KZSbY,"{'compound_code': 'FVXF+7G Ribandar, Goa', 'global_code': '7J7MFVXF+7G'}",4.7,"['hindu_temple', 'place_of_worship', 'point_of_interest', 'establishment']",3,TRUE,hindu_temple,-1,-1,15.498218,73.87377
CLOSED_TEMPORARILY,"Dinanath Mangeshkar Rd, Mangeshi Village, Mardol, Goa 403401, India",Shree Mangesh temple,-1,ChIJAQAAALy6vzsR9rv-XA9g7a8,"{'compound_code': 'CXV8+XH Mardol, Goa', 'global_code': '7J7MCXV8+XH'}",4.6,"['hindu_temple', 'tourist_attraction', 'place_of_worship', 'point_of_interest', 'establishment']",9891,TRUE,hindu_temple,-1,-1,15.4449051,73.9663825
CLOSED_TEMPORARILY,"shirent near, Chimbel, Goa, India",Sateri Temple,-1,ChIJr3x1ghe_vzsRJOcbvPx7xyM,"{'compound_code': 'FVQG+CM Chimbel, Goa', 'global_code': '7J7MFVQG+CM'}",3.9,"['hindu_temple', 'place_of_worship', 'point_of_interest', 'establishment']",7,TRUE,hindu_temple,-1,-1,15.488536,73.8766763
OPERATIONAL,"H. NO. 525A JUNASWADA MANDREM, Goa Velha, Goa 403527, India",Fantasy Resort Goa,-1,ChIJZ6uN-_K-vzsRz1VdIxKQnB4,"{'compound_code': 'GW25+QX Goa Velha, Goa', 'global_code': '7J7MGW25+QX'}",4.3,"['lodging', 'point_of_interest', 'establishment']",3,-1,lodging,-1,-1,15.501984,73.91
OPERATIONAL,"137 Near Basilica Junction, Goa Velha, Goa 403402, India",OYO 19773 La Grande Residencia,-1,ChIJ54a3vmm_vzsRrB0-yDNo4us,"{'compound_code': 'GW25+QR Goa Velha, Goa', 'global_code': '7J7MGW25+QR'}",4,"['lodging', 'point_of_interest', 'establishment']",74,-1,lodging,-1,-1,15.501931,73.909559
OPERATIONAL,"curca road, merces, opposite to lokmanya co-operative society, Panaji, Goa 403005, India",Hotel Travellers Inn,{'open_now': True},ChIJfdmxa6nAvzsRrhzNAFsycGI,"{'compound_code': 'FVH4+WX Panaji, Goa', 'global_code': '7J7MFVH4+WX'}",3.5,"['lodging', 'point_of_interest', 'establishment']",402,-1,lodging,-1,-1,15.479753,73.857454
OPERATIONAL,"Near Old Goa Fire Brigade, Goa 403402, India",Old Goa Residency,-1,ChIJU9ecYY2-vzsRz8RNKblGBXk,"{'compound_code': 'GW27+2J Goa Velha, Goa', 'global_code': '7J7MGW27+2J'}",3.8,"['lodging', 'point_of_interest', 'establishment']",421,-1,lodging,-1,-1,15.5000954,73.9140844
OPERATIONAL,"Kadamba Plateau Panjim, Old Goa Rd, Goa Velha, Goa 403006, India",DoubleTree by Hilton Goa - Panaji,-1,ChIJb21vuhy_vzsR3gvQFK8FbRI,"{'compound_code': 'FVWM+G9 Goa Velha, Goa', 'global_code': '7J7MFVWM+G9'}",4.4,"['lodging', 'point_of_interest', 'establishment']",1224,-1,lodging,-1,-1,15.4962795,73.8833864
OPERATIONAL,"House no 303, Curca Canturlim, Goa, Bambolim, Goa, Goa 403108, India",Casa DCM and Esmeralda,{'open_now': True},ChIJp3iqYs24vzsRHCNmukF5HoI,"{'compound_code': 'FV6G+9V Curca, Goa', 'global_code': '7J7MFV6G+9V'}",4.6,"['lodging', 'point_of_interest', 'establishment']",95,-1,lodging,-1,-1,15.460887,73.87719
CLOSED_TEMPORARILY,"Near Milroc Woods, opp. Indian oil petrol pump , Corlim, Goa Velha, 403110, India",Swarnam - Banquet Hall and Hotel,-1,ChIJsS8qH5u-vzsRTav8J-Hb7CM,"{'compound_code': 'FWXG+MX Goa Velha, Goa', 'global_code': '7J7MFWXG+MX'}",4.1,"['lodging', 'point_of_interest', 'establishment']",278,TRUE,lodging,-1,-1,15.4991801,73.9274957
OPERATIONAL,"Milroc Woods, 81, Goa Velha, Goa 403110, India",OYO 12647 Swarnam,{'open_now': True},ChIJl_UtGZu-vzsRGOCI-igKAeQ,"{'compound_code': 'GW2G+6Q Goa Velha, Goa', 'global_code': '7J7MGW2G+6Q'}",4.3,"['lodging', 'point_of_interest', 'establishment']",51,-1,lodging,-1,-1,15.5006146,73.9269807
OPERATIONAL,"Jose Valadares,5th Lane Behind St John the Baptist Church, Carambolim, Goa 403110, India","Cozy Woods Hill Resort, North Goa",{'open_now': True},ChIJ7TzMgrq-vzsR0su7Vazd8nw,"{'compound_code': 'FWHC+4R Carambolim, Corlim, Goa', 'global_code': '7J7MFWHC+4R'}",4.1,"['lodging', 'point_of_interest', 'establishment']",269,-1,lodging,-1,-1,15.47781,73.922001
OPERATIONAL,"H. No. 217, Near, Charmanos, Badem, Britona, Alto Porvorim, Salvador do Mundo, Goa 403101, India",Casa Britona,{'open_now': True},ChIJq6qq1vm_vzsRLXODPXV9fIw,"{'compound_code': 'GRCW+9R Salvador do Mundo, Goa', 'global_code': '7J7MGRCW+9R'}",4.2,"['lodging', 'restaurant', 'food', 'point_of_interest', 'establishment']",77,-1,lodging,-1,-1,15.5209883,73.8470547
OPERATIONAL,"304, Gaunkarvaddo, Batim, PO Goa Velha Tiswadi, Panaji, Goa 403108, India",Casa Menezes - A Heritage Goan Homestay,{'open_now': True},ChIJO17f-di4vzsRljLIDbapydk,"{'compound_code': 'CVXP+MM Maina, Goa', 'global_code': '7J7MCVXP+MM'}",4.5,"['art_gallery', 'lodging', 'point_of_interest', 'establishment']",170,-1,lodging,-1,-1,15.44925,73.886681
CLOSED_TEMPORARILY,"P.O Goa University, Road, Bambolim, Goa 403206, India",Grand Hyatt Goa,-1,ChIJVVVVkam4vzsRmi-UvmKNI7k,"{'compound_code': 'FV22+GW Bambolim, Goa', 'global_code': '7J7MFV22+GW'}",4.6,"['lodging', 'point_of_interest', 'establishment']",8461,TRUE,lodging,-1,-1,15.4513441,73.8523614
OPERATIONAL,"Damodar Building, CO Hot Spice Restuarant, Before Chorao Ferry, Raibandar, Panaji, Goa 403006, India",Damodar Guest House,-1,ChIJ4Ww23nS_vzsRaEvQEeZiIpA,"{'compound_code': 'GV37+QJ Panaji, Goa', 'global_code': '7J7MGV37+QJ'}",3.9,"['lodging', 'point_of_interest', 'establishment']",28,-1,lodging,-1,-1,15.5044325,73.8640451
CLOSED_TEMPORARILY,"Goa University Road Bambolim Beach, Bambolim, Goa 403206, India",Bambolim Beach Resort,-1,ChIJRRIm0bq4vzsRL-mJpmexnEs,"{'compound_code': 'CVX3+3M Bambolim, Goa', 'global_code': '7J7MCVX3+3M'}",3.9,"['lodging', 'point_of_interest', 'establishment']",1237,TRUE,lodging,-1,-1,15.4476911,73.85424
OPERATIONAL,"H.No.119A, P.O.Piedade, Goddar, Divar Island, Goa 403403, India",Moradia dos Quadros,{'open_now': True},ChIJKXUxO0C-vzsRTscnnP7gybI,"{'compound_code': 'GWJ6+PP Piedade, Goa', 'global_code': '7J7MGWJ6+PP'}",4.9,"['lodging', 'health', 'point_of_interest', 'establishment']",198,-1,lodging,-1,-1,15.531811,73.911782
OPERATIONAL,"Kadamba Plateau, Panjim, Old Goa Rd, Goa Velha, Goa 403402, India",The Fern Kadamba,{'open_now': True},ChIJ4ex6i8K-vzsRUz4T7dZynwI,"{'compound_code': 'FWP3+H7 Goa Velha, Goa', 'global_code': '7J7MFWP3+H7'}",4.2,"['lodging', 'point_of_interest', 'establishment']",2077,-1,lodging,-1,-1,15.4864399,73.903203
OPERATIONAL,"H. No 130, Portais Chimabel, Ribandar, Goa 403006, India",Serene Waters Goa,-1,ChIJO6lO7HK_vzsRndAkHG9Phxk,"{'compound_code': 'FVX7+8G Ribandar, Goa', 'global_code': '7J7MFVX7+8G'}",4.2,"['lodging', 'point_of_interest', 'establishment']",201,-1,lodging,-1,-1,15.4982536,73.8638746
OPERATIONAL,"D-69/4/5 After Gandhi Circle, Before Church of Our Lady of Mount, Ella, Goa 403402, India",The Postcard Velha,{'open_now': True},ChIJpe6VLY6-vzsR_hvfhaJHio4,"{'compound_code': 'CVQX+P4 Ella, Goa', 'global_code': '7J7MCVQX+P4'}",4.7,"['lodging', 'point_of_interest', 'establishment']",63,-1,lodging,-1,-1,15.4392586,73.897769
CLOSED_TEMPORARILY,"No. 45, Piedade, Goltim, Divar, Goa 403403, India",Island House Goa,-1,ChIJu1gNpk--vzsR1DMHRCtbyh0,"{'compound_code': 'GWF2+77 Piedade, Goa', 'global_code': '7J7MGWF2+77'}",4.7,"['lodging', 'point_of_interest', 'establishment']",108,TRUE,lodging,-1,-1,15.5232472,73.9006286
OPERATIONAL,"PERI BHAT PERI BHAT, NH4 HIGHWAY, ELA, Old Goa, Goa Velha, Goa 403404, India",HOSPITALITY INN GOA,-1,ChIJVVWVXo2-vzsRBZZ4etXoEHQ,-1,5,"['lodging', 'point_of_interest', 'establishment']",1,-1,lodging,-1,-1,15.5000699,73.9136616
CLOSED_TEMPORARILY,"Safa (Mulam/Mulla Family) Masjid Committe Shapur, Ponda, Goa 403401, India",Safa Masjid,-1,ChIJcQ-Ghuy6vzsRuM81ZARgpNw,"{'compound_code': 'CX4X+JX Ponda, Goa', 'global_code': '7J7MCX4X+JX'}",4.4,"['mosque', 'tourist_attraction', 'place_of_worship', 'point_of_interest', 'establishment']",548,TRUE,mosque,-1,-1,15.4065636,73.9999756
CLOSED_TEMPORARILY,"Dr Dada Vaidya Rd, Altinho, Panaji, Goa 403001, India",Jama Masjid,-1,ChIJ--EmFo_AvzsRm7arlr-51V0,"{'compound_code': 'FRXH+58 Altinho, Panaji, Goa', 'global_code': '7J7MFRXH+58'}",4.6,"['mosque', 'tourist_attraction', 'place_of_worship', 'point_of_interest', 'establishment']",255,TRUE,mosque,-1,-1,15.4979283,73.8283386
CLOSED_TEMPORARILY,"Sabnis Valley, Penha de França, Goa 403501, India",Goa Bohra Masjid,-1,ChIJt26JPB3AvzsRintRQ92yIJg,"{'compound_code': 'GRXH+8H Sabnis Valley, Penha de França, Goa', 'global_code': '7J7MGRXH+8H'}",4.4,"['mosque', 'place_of_worship', 'point_of_interest', 'establishment']",19,TRUE,mosque,-1,-1,15.548346,73.828976
OPERATIONAL,"Xavier College Road, Near Housing Board, Dangui Colony, Ekta Nagar, Mapusa, Goa, 403507, India",Idgah Masjid مسجد,{'open_now': True},ChIJWfGe2h3rvzsRxVaARUyTexw,"{'compound_code': 'HRW6+MP Mapusa, Goa', 'global_code': '7J7MHRW6+MP'}",4.5,"['mosque', 'place_of_worship', 'point_of_interest', 'establishment']",162,-1,mosque,-1,-1,15.596675,73.811787
OPERATIONAL,"Alto- Betim Porvorim, Penha de França, Goa 403521, India",Masjid E Hamza,-1,ChIJ191gmGXAvzsRComZ_ZPmocM,"{'compound_code': 'GR7G+VM Alto- Betim Porvorim, Penha de França, Goa', 'global_code': '7J7MGR7G+VM'}",4.8,"['mosque', 'place_of_worship', 'point_of_interest', 'establishment']",210,-1,mosque,-1,-1,15.5147222,73.8266667
CLOSED_TEMPORARILY,"Chimbel, Goa 403006, India",Chimbel Mosque,-1,ChIJid3Ctxe_vzsR8Zr6BSxFv4c,"{'compound_code': 'FVPF+RX Chimbel, Goa', 'global_code': '7J7MFVPF+RX'}",4.7,"['mosque', 'place_of_worship', 'point_of_interest', 'establishment']",31,TRUE,mosque,-1,-1,15.4870274,73.8748836
CLOSED_TEMPORARILY,"Vidhyanagar Colony, South Goa, Mormugao, Goa 403726, India",Masjid-e-Noor مسجد,-1,ChIJJQjkhRS4vzsRbE1XZZGha2o,"{'compound_code': '9VR6+F3 Mormugao, Goa', 'global_code': '7J7M9VR6+F3'}",4.6,"['mosque', 'place_of_worship', 'point_of_interest', 'establishment']",70,TRUE,mosque,-1,-1,15.3911737,73.8602391
CLOSED_TEMPORARILY,"Dr Gama Pinto Rd, behind Pharmacy College, Altinho, Panaji, Goa 403001, India",Masjid Palacio de goa,-1,ChIJuxTOgQzBvzsRWJlvBE_xGnk,"{'compound_code': 'FRVC+QW Altinho, Panaji, Goa', 'global_code': '7J7MFRVC+QW'}",0,"['mosque', 'place_of_worship', 'point_of_interest', 'establishment']",0,TRUE,mosque,-1,-1,15.4944884,73.8222905
CLOSED_TEMPORARILY,"Near Don Bosco High School, Panaji, Goa 403001, India",Masjid-e-Inaam مسجد,-1,ChIJjQ0WRIzAvzsRA9SpXHDsiE8,"{'compound_code': 'FRWC+PW Panaji, Goa', 'global_code': '7J7MFRWC+PW'}",4.5,"['mosque', 'place_of_worship', 'point_of_interest', 'establishment']",36,TRUE,mosque,-1,-1,15.496817,73.8223671
CLOSED_TEMPORARILY,"Kazi Waza, Ponda, Goa 403401, India",Jamia Masjid مسجد,-1,ChIJkethnb-6vzsR8Moyc9HJfAg,"{'compound_code': 'C235+GQ Kazi Waza, Ponda, Goa', 'global_code': '7J7PC235+GQ'}",4.3,"['mosque', 'place_of_worship', 'point_of_interest', 'establishment']",141,TRUE,mosque,-1,-1,15.4038134,74.0094267
CLOSED_TEMPORARILY,"Cotombi, Goa 403530, India",Surla Mosque,-1,ChIJwYE1C8i8vzsRmZDsHFDYrk4,"{'compound_code': 'F2X9+2C Cotombi, Goa', 'global_code': '7J7PF2X9+2C'}",4.5,"['mosque', 'place_of_worship', 'point_of_interest', 'establishment']",26,TRUE,mosque,-1,-1,15.4976241,74.018557
CLOSED_TEMPORARILY,"Unnamed Road, Ravalnath Nagar, Mangaddo, Corlim, Goa 403110, India",Masjid Al-Furqaniya,-1,ChIJyTR6huu9vzsRzVzp-w6KePc,"{'compound_code': 'GW2P+5V Mangaddo, Gandaulim, Goa', 'global_code': '7J7MGW2P+5V'}",4.7,"['mosque', 'place_of_worship', 'point_of_interest', 'establishment']",3,TRUE,mosque,-1,-1,15.5004361,73.937137
CLOSED_TEMPORARILY,"Margao - Quepem Rd, Navelim, Goa 403707, India",Abrar Masjid مسجد,-1,ChIJX_kB--qzvzsRUUbtdV6ayqg,"{'compound_code': '7X84+PR Navelim, Goa', 'global_code': '7J7M7X84+PR'}",4.5,"['mosque', 'place_of_worship', 'point_of_interest', 'establishment']",59,TRUE,mosque,-1,-1,15.2667651,73.9571044
CLOSED_TEMPORARILY,"Ekta Nagar, Mapusa, Goa 403507, India",Usmaniya Masjid Tablighi Markaz مسجد,-1,ChIJ76z9gQTrvzsRzu-LgsGx90k,"{'compound_code': 'HRX3+VJ Ekta Nagar, Mapusa, Goa', 'global_code': '7J7MHRX3+VJ'}",4.5,"['mosque', 'place_of_worship', 'point_of_interest', 'establishment']",40,TRUE,mosque,-1,-1,15.5996865,73.8041163
CLOSED_TEMPORARILY,"Merces, Bambolim, Goa 403202, India",Masjid Ul Aqsa,-1,ChIJ54IFFFy_vzsRY-Hj-CMl7rE,"{'compound_code': 'FRHX+JH Merces, Bambolim, Goa', 'global_code': '7J7MFRHX+JH'}",4.2,"['mosque', 'place_of_worship', 'point_of_interest', 'establishment']",33,TRUE,mosque,-1,-1,15.4790424,73.8489336
CLOSED_TEMPORARILY,"Housing Board, Rumdamol, Davorlim, Navelim, Goa 403707, India",Sunni Al Madina Masjid Wa Madrasa,-1,ChIJq6qq6jKyvzsRZe0nGWv8SiQ,"{'compound_code': '7XGQ+P8 Navelim, Goa', 'global_code': '7J7M7XGQ+P8'}",4.5,"['mosque', 'place_of_worship', 'point_of_interest', 'establishment']",68,TRUE,mosque,-1,-1,15.276759,73.9883709
CLOSED_TEMPORARILY,"Nagoa, Goa 403722, India",Masjid Mehboob-E-Subhanni,-1,ChIJq6qqC1e3vzsRK-5UxmdtoSw,"{'compound_code': '9WFG+39 Nagoa, Goa', 'global_code': '7J7M9WFG+39'}",4.7,"['mosque', 'place_of_worship', 'point_of_interest', 'establishment']",22,TRUE,mosque,-1,-1,15.3727145,73.9258785
CLOSED_TEMPORARILY,"Chandrawado, SBI Housing Colony, Fatorda, Margao, Goa 403602, India",Masjid E Al Aqsa,-1,ChIJTZ8uwWixvzsROPC1csecE5w,"{'compound_code': '8X27+7M Fatorda, Goa', 'global_code': '7J7M8X27+7M'}",4.6,"['mosque', 'place_of_worship', 'point_of_interest', 'establishment']",40,TRUE,mosque,-1,-1,15.3006834,73.9642256
CLOSED_TEMPORARILY,"Malbhat, Margao, Goa 403601, India",Arab Sab Sunni Jamia Masjid,-1,ChIJR9s51sOzvzsRKlkYQuvgLvU,"{'compound_code': '7XC7+75 Malbhat, Margao, Goa', 'global_code': '7J7M7XC7+75'}",4.6,"['mosque', 'place_of_worship', 'point_of_interest', 'establishment']",16,TRUE,mosque,-1,-1,15.2706555,73.9629352
OPERATIONAL,"Calangute - Baga Rd, Baga, Goa 403516, India",Hyderabadi Biryani by Jacks Kitchen,-1,ChIJk9OSQSnrvzsRxqbMaz9nUJY,"{'compound_code': 'HQ63+P4 Baga, Goa', 'global_code': '7J7MHQ63+P4'}",5,"['restaurant', 'food', 'point_of_interest', 'establishment']",19,-1,restaurant,-1,-1,15.561827,73.7528424
OPERATIONAL,"Beach, Junaswada, Mandrem, Goa 403527, India",Black pepper,-1,ChIJyVTjn5bvvzsRcnihu_nXCxk,"{'compound_code': 'MPC6+Q3 Mandrem, Goa', 'global_code': '7J7MMPC6+Q3'}",5,"['restaurant', 'food', 'point_of_interest', 'establishment']",54,-1,restaurant,-1,-1,15.6718817,73.7102148
OPERATIONAL,"Calangute - Baga Rd, Mapusa, Goa 403516, India",The Kindman's At Nicky's Bar 'n' Restaurant,{'open_now': True},ChIJfUxsgwjqvzsRwgQ5Ha7RPw0,"{'compound_code': 'HQ35+37 Mapusa, Goa', 'global_code': '7J7MHQ35+37'}",4.9,"['restaurant', 'food', 'point_of_interest', 'establishment']",13,-1,restaurant,-1,-1,15.5526281,73.7582491
OPERATIONAL,"Arpora, Goa 403519, India",Odies Restaurant,{'open_now': True},ChIJv_h8MBPqvzsR8LRaU7bBy9k,"{'compound_code': 'HQ69+HQ Arpora, Goa', 'global_code': '7J7MHQ69+HQ'}",4,"['restaurant', 'food', 'point_of_interest', 'establishment']",32,-1,restaurant,-1,-1,15.5614418,73.7694828
OPERATIONAL,"TR Mansion Building, Shop No.4/5 B, near Caculo Ford Showroom, Santa Inez, Panaji, Goa 403001, India",Haji Ali Restaurant,{'open_now': True},ChIJUwAZopTAvzsRNiLCBLm7iYc,"{'compound_code': 'FRP9+PV Santa Inez, Panaji, Goa', 'global_code': '7J7MFRP9+PV'}",3.9,"['restaurant', 'food', 'point_of_interest', 'establishment']",820,-1,restaurant,2,-1,15.4867748,73.8197414
OPERATIONAL,"La-campala colony Shangri-La apartments, Miramar, Panaji, Goa 403001, India",Savera Restaurant (Currently only take away bulk orders),{'open_now': True},ChIJFTPAiZTAvzsRaTvDNoipUO0,"{'compound_code': 'FRM6+QX Miramar, Panaji, Goa', 'global_code': '7J7MFRM6+QX'}",3.9,"['restaurant', 'food', 'point_of_interest', 'establishment']",56,-1,restaurant,-1,-1,15.4844346,73.8124987
OPERATIONAL,"No.175, Shantinagar Rd, Shanti Nagar, Ponda, Goa 403401, India",Mahananda Hotel Veg And Non-veg restaurant Since 1985....,{'open_now': True},ChIJp34k_r26vzsRyv-cMnt4IUQ,"{'compound_code': '92X4+FM Shanti Nagar, Ponda, Goa', 'global_code': '7J7P92X4+FM'}",4.2,"['restaurant', 'food', 'point_of_interest', 'establishment']",35,-1,restaurant,-1,-1,15.3987089,74.0067275
OPERATIONAL,"Murida, New Zariwaddo, Borda, Margao, Goa 403602, India",Shivam Restaurant,{'open_now': True},ChIJnf1Eoq6xvzsRahPgbarLknw,"{'compound_code': '7XQ9+WX Borda, Margao, Goa', 'global_code': '7J7M7XQ9+WX'}",4.2,"['restaurant', 'food', 'point_of_interest', 'establishment']",197,-1,restaurant,2,-1,15.2897857,73.9699237
OPERATIONAL,"Khadpabandh, Ponda, Goa 403401, India",Anveet Family Restaurant,{'open_now': True},ChIJyZnY_ZS6vzsRcJBSVNOqYXU,"{'compound_code': 'C223+M9 Khadpabandh, Ponda, Goa', 'global_code': '7J7PC223+M9'}",4.3,"['restaurant', 'food', 'point_of_interest', 'establishment']",68,-1,restaurant,-1,-1,15.401673,74.0034496
OPERATIONAL,"Coutinho Vaddo, Vagator, Goa 403509, India",Wom Foods Multicuisine Restaurant,{'open_now': True},ChIJ65WivbvpvzsRb5ddDPtcgIE,"{'compound_code': 'HPXV+7P Coutinho Vaddo, Vagator, Goa', 'global_code': '7J7MHPXV+7P'}",4.2,"['restaurant', 'food', 'point_of_interest', 'establishment']",180,-1,restaurant,-1,-1,15.5982105,73.7442776
OPERATIONAL,"Monteiro Vaddo, Anjuna, Goa 403509, India",LA BELLA BAR & GRILL,{'open_now': True},ChIJ6dXHqrrpvzsR6pQkwPjS2BY,"{'compound_code': 'HPGV+HX Monteiro Vaddo, Anjuna, Goa', 'global_code': '7J7MHPGV+HX'}",4.1,"['restaurant', 'food', 'point_of_interest', 'establishment']",46,-1,restaurant,-1,-1,15.576383,73.7449315
OPERATIONAL,"Vagator Beach Road, Ozran Beach Rd, near Banyan tree, Small, Vagator, Goa 403509, India",Fusion Vagator,{'open_now': True},ChIJs_5gpXDpvzsR5dvCVNHRTYQ,"{'compound_code': 'HPWP+35 Vagator, Goa', 'global_code': '7J7MHPWP+35'}",4.6,"['restaurant', 'food', 'point_of_interest', 'establishment']",143,-1,restaurant,2,-1,15.5951749,73.7354062
OPERATIONAL,"House No 134, Mae de Deus vaddo, Sangolda, Goa 403511, India",Mezmiz Goa,{'open_now': False},ChIJRdAMDffBvzsRWfE8aYNTW7k,"{'compound_code': 'GRV6+73 Sangolda, Goa', 'global_code': '7J7MGRV6+73'}",4.5,"['restaurant', 'food', 'point_of_interest', 'establishment']",107,-1,restaurant,-1,-1,15.5432488,73.8102236
OPERATIONAL,"Candolim, Goa 403515, India",Bistro Bourbon Street,{'open_now': False},ChIJKXMZ6aLBvzsRz9uImLr3ToY,"{'compound_code': 'GQ6F+48 Candolim, Goa', 'global_code': '7J7MGQ6F+48'}",4.4,"['restaurant', 'food', 'point_of_interest', 'establishment']",35,-1,restaurant,-1,-1,15.5103691,73.773303
OPERATIONAL,"near sarswat bank, Bicholim, Goa 403504, India",Hotel Saachi Veg & Non Veg,{'open_now': False},ChIJ64-4inGWvzsRZaGEXANwSJE,"{'compound_code': 'HWRF+GQ Bicholim, Goa', 'global_code': '7J7MHWRF+GQ'}",4.1,"['restaurant', 'food', 'point_of_interest', 'establishment']",34,-1,restaurant,2,-1,15.591251,73.9243968
OPERATIONAL,"Dr Dada Vaidya Rd, Near Mahalaxmi Temple, Altinho, Panaji, Goa 403001, India",Kokni Kanteen Goa,{'open_now': False},ChIJtyc9_I7AvzsRdhrr8_k-fL4,"{'compound_code': 'FRWG+MQ Panaji, Goa', 'global_code': '7J7MFRWG+MQ'}",4.4,"['restaurant', 'food', 'point_of_interest', 'establishment']",4819,-1,restaurant,2,-1,15.496707,73.8269451
OPERATIONAL,"Arpora Road, River Side Next to Royal Goan Beach Resort, Baga, Goa 403519, India",Dine N Divine,{'open_now': True},ChIJw170OknrvzsRfvYdmSZr8Xo,"{'compound_code': 'HQ93+F9 Baga, Goa', 'global_code': '7J7MHQ93+F9'}",3.9,"['restaurant', 'food', 'point_of_interest', 'establishment']",202,-1,restaurant,-1,-1,15.5687039,73.7534794
CLOSED_TEMPORARILY,"Mapusa - Duler - Camurlim Rd, St. Jerome Vaddo, Duler, Mapusa, Goa 403507, India",Blue Star Bar & Restaurant,-1,ChIJCb3cMhfrvzsRiIO8jvC9HVs,"{'compound_code': 'JR56+8X Mapusa, Goa', 'global_code': '7J7MJR56+8X'}",4.1,"['bar', 'restaurant', 'food', 'point_of_interest', 'establishment']",36,TRUE,restaurant,2,-1,15.608266,73.812376
OPERATIONAL,"Panjim Old Goa Bypass Road, Kadamba Plateau, Velha Goa, Bainguinim, Goa 403402, India",Café Tinto,{'open_now': False},ChIJbUp-i8K-vzsRmqyCipAjvWU,"{'compound_code': 'FWP3+H8 Bainguinim, Goa', 'global_code': '7J7MFWP3+H8'}",3.7,"['restaurant', 'food', 'point_of_interest', 'establishment']",6,-1,restaurant,-1,-1,15.4864132,73.9032872
OPERATIONAL,"Shop Number G-6, Madhuban Complex, Tambdi Mati, Panaji, Santa Inez, Goa, 403001, India",New Kohinoor Restaurant,{'open_now': True},ChIJ2R7SWZTAvzsRvkDXLLC9lUM,"{'compound_code': 'FRPC+2J Santa Inez, Panaji, Goa', 'global_code': '7J7MFRPC+2J'}",3.9,"['restaurant', 'food', 'point_of_interest', 'establishment']",72,-1,restaurant,1,-1,15.485088,73.821613
-1,-1,-1,-1,-1,-1,-1,-1,-1,-1,rv_park,-1,0,,
CLOSED_TEMPORARILY,"Dr Pundlik Gaitonde Rd, Palolem, Canacona, Goa 403702, India",Chabad House Palolem,-1,ChIJDRzV31NFvjsRw1k5w-prICk,"{'compound_code': '227F+6M Palolem, Canacona, Goa', 'global_code': '7J7P227F+6M'}",4.6,"['synagogue', 'place_of_worship', 'point_of_interest', 'establishment']",58,TRUE,synagogue,-1,-1,15.0130198,74.0242039
OPERATIONAL,"Near Bhagwan Mahaveer Wildlife Sanctury, Sanguem, Surla, Goa 403406, India","Mahadeva Temple, Tambdi Surla",{'open_now': True},ChIJKTeIBk4IvzsRekHQksfEKkk,"{'compound_code': 'C7Q3+J2 Surla, Goa', 'global_code': '7J7PC7Q3+J2'}",4.7,"['hindu_temple', 'tourist_attraction', 'place_of_worship', 'point_of_interest', 'establishment']",1432,-1,synagogue,-1,-1,15.4390499,74.2525571
CLOSED_TEMPORARILY,"Goa Velha, Goa 403110, India",Old church Goa punjim Panaji,-1,ChIJK1DIU5y_vzsRxCwqv6nwcWM,"{'compound_code': 'GW26+JJ Goa Velha, Goa', 'global_code': '7J7MGW26+JJ'}",4.7,"['tourist_attraction', 'point_of_interest', 'establishment']",32,TRUE,tourist_attraction,-1,-1,15.5015981,73.9115629
-1,"Goa Velha, Goa 403110, India",Goa Velha,-1,ChIJoZAO8Iy-vzsRdjnRm5YEPZw,-1,-1,"['locality', 'political']",-1,-1,tourist_attraction,-1,-1,15.501984,73.9100068
OPERATIONAL,"Fort Aguada Rd, Aguada Fort Area, Candolim, Goa 403515, India",Aguada Fort,{'open_now': True},ChIJa72MxnXBvzsRHHtpszB2g6M,"{'compound_code': 'FQVF+27 Aguada Fort Area, Candolim, Goa', 'global_code': '7J7MFQVF+27'}",4.2,"['tourist_attraction', 'point_of_interest', 'establishment']",59221,-1,tourist_attraction,-1,-1,15.4925631,73.7731561
OPERATIONAL,"Goa Velha, Goa 403110, India",Adil Shah Palace Gateway,{'open_now': False},ChIJrUMKXou-vzsRG2SLL5cWces,"{'compound_code': 'GW47+6M Goa Velha, Goa', 'global_code': '7J7MGW47+6M'}",4.1,"['tourist_attraction', 'point_of_interest', 'establishment']",85,-1,tourist_attraction,-1,-1,15.5055517,73.9141983
OPERATIONAL,"Near Church of St Cajetan, Goa Velha, Goa 403110, India",Old-Goa Jetty,{'open_now': True},ChIJg9a2qPS-vzsRFUP18hAx57E,"{'compound_code': 'GW47+MC Goa Velha, Goa', 'global_code': '7J7MGW47+MC'}",4.6,"['point_of_interest', 'establishment']",52,-1,tourist_attraction,-1,-1,15.5066987,73.9135095
OPERATIONAL,"Ella, Goa 403110, India","Haat Katro Khamb, Old Goa",{'open_now': True},ChIJ1V6apJK-vzsR3seZXsRBSvc,"{'compound_code': 'FWX7+MC Ella, Goa', 'global_code': '7J7MFWX7+MC'}",4.2,"['tourist_attraction', 'point_of_interest', 'establishment']",38,-1,tourist_attraction,-1,-1,15.4992048,73.9135309
-1,"Mandovi River, Goa",Mandovi River,-1,ChIJh8k9JUi-vzsRarcD-ASFIH0,-1,4.4,"['natural_feature', 'establishment']",716,-1,tourist_attraction,-1,-1,15.5062883,73.90872
OPERATIONAL,"Church of St. Augustine Ruins, Goa Velha, Goa 403402, India",St. Augustine Tower,{'open_now': False},ChIJ7YKn9fG-vzsRqG6gJbaQxPs,"{'compound_code': 'GW24+6H Goa Velha, Goa', 'global_code': '7J7MGW24+6H'}",4.4,"['tourist_attraction', 'point_of_interest', 'establishment']",1727,-1,tourist_attraction,-1,-1,15.5005094,73.9064616
-1,"Divar Island, Goa 403403",Divar Island,-1,ChIJyf_9rkW-vzsRGWg3rwspqME,-1,4.4,"['natural_feature', 'establishment']",276,-1,tourist_attraction,-1,-1,15.5276933,73.9065883
CLOSED_TEMPORARILY,"EDC Complex, patto, Panaji, Goa 403001, India",Archaeological Museum of Goa,-1,ChIJkRYoGPO-vzsRJtAbk3TQPEc,"{'compound_code': 'GW36+78 Goa Velha, Goa', 'global_code': '7J7MGW36+78'}",4.3,"['tourist_attraction', 'museum', 'point_of_interest', 'establishment']",380,TRUE,tourist_attraction,-1,-1,15.5031915,73.9108599
OPERATIONAL,"309, Patto Business Center, Nr. Panaji Bus Stand, Patto Plaza, Panaji, Goa 403001, India",Goa Top 10,{'open_now': True},ChIJvz1rfoTAvzsRkfK9gNLZmnc,"{'compound_code': 'FRWP+Q7 Panaji, Goa', 'global_code': '7J7MFRWP+Q7'}",4.5,"['tourist_attraction', 'point_of_interest', 'establishment']",324,-1,tourist_attraction,-1,-1,15.496937,73.835734
OPERATIONAL,"Dona Paula Jetty, Road, Dona Paula, Goa 403004, India",Dona Paula View Point,{'open_now': True},ChIJtW8AjS7HvzsRnnAZoefYMAg,"{'compound_code': 'FR23+65 Dona Paula Jetty, Goa', 'global_code': '7J7MFR23+65'}",4.1,"['tourist_attraction', 'point_of_interest', 'establishment']",33303,-1,tourist_attraction,-1,-1,15.4506125,73.8029961
CLOSED_TEMPORARILY,"Goa Velha, Goa 403110, India","Viceroys Arch, Goa",-1,ChIJrRLnXou-vzsRTmy-Yn5wi5A,"{'compound_code': 'GW47+8F Goa Velha, Goa', 'global_code': '7J7MGW47+8F'}",4.2,"['tourist_attraction', 'point_of_interest', 'establishment']",394,TRUE,tourist_attraction,-1,-1,15.5057585,73.9137064
CLOSED_TEMPORARILY,"#1239, Cross Farm, Tolto, St. Estevam, Tiswadi, Goa, Saint Estevam, St Estevam Island, Goa 403106, India",Crocodile Trip,-1,ChIJE9KIQXe-vzsRH9wlc9QBGK8,"{'compound_code': 'GWCM+W3 St Estevam Island, Goa', 'global_code': '7J7MGWCM+W3'}",3.9,"['tourist_attraction', 'point_of_interest', 'establishment']",39,TRUE,tourist_attraction,-1,-1,15.522276,73.932692
CLOSED_TEMPORARILY,"Usgao-Ganjem VP, Goa 403105, India",Bondla Wildlife Sanctuary,-1,ChIJ1TJ8b1akvzsRjgW-y7x27sQ,"{'compound_code': 'C4R4+2H Usgao-Ganjem VP, Goa', 'global_code': '7J7PC4R4+2H'}",4,"['zoo', 'tourist_attraction', 'point_of_interest', 'establishment']",1973,TRUE,zoo,-1,-1,15.4401104,74.1063776
CLOSED_TEMPORARILY,"Usgao-Ganjem VP, Goa 403105, India",Bondla Zoo,-1,ChIJ_f___1OkvzsRY48eC5PyMEA,"{'compound_code': 'C4M4+89 Usgao-Ganjem VP, Goa', 'global_code': '7J7PC4M4+89'}",4,"['zoo', 'park', 'point_of_interest', 'establishment']",350,TRUE,zoo,-1,-1,15.4332629,74.1059617
CLOSED_TEMPORARILY,"Unnamed Road, Prabhu Nagar, Ponda, Goa 403401, India",Sahakari Spice Plantation backside,-1,ChIJr4mnZlm7vzsR7phtDlcwqVs,"{'compound_code': 'C24F+Q8 Prabhu Nagar, Ponda, Goa', 'global_code': '7J7PC24F+Q8'}",3.9,"['zoo', 'point_of_interest', 'establishment']",31,TRUE,zoo,-1,-1,15.406909,74.023315
CLOSED_TEMPORARILY,"Mandovi River, Goa, India",Goa Tour Stop,-1,ChIJ6ds1VoHAvzsR-iD_92lw0LU,"{'compound_code': 'FRXP+WJ Alto- Betim Porvorim, Penha de França, Goa', 'global_code': '7J7MFRXP+WJ'}",3,"['tourist_attraction', 'point_of_interest', 'establishment']",2,TRUE,zoo,-1,-1,15.4998264,73.8365552
CLOSED_TEMPORARILY,"Neturlim, Goa 403704, India",Hegde's Farm Jakem Netravali GOA,-1,ChIJWe2_gTNWvjsR1IE_XK_3Fwo,"{'compound_code': '36J2+76 Neturlim, Goa', 'global_code': '7J7P36J2+76'}",4.5,"['zoo', 'park', 'point_of_interest', 'establishment']",2,TRUE,zoo,-1,-1,15.0806617,74.2005927
CLOSED_TEMPORARILY,"42c/1 ghotnicho va mushir wado, Colvale, Goa 403513, India",Waste management,-1,ChIJkett0P_tvzsRVUaK0QN7YhE,"{'compound_code': 'MR2H+V5 Colvale, Goa', 'global_code': '7J7MMR2H+V5'}",0,"['zoo', 'point_of_interest', 'establishment']",0,TRUE,zoo,-1,-1,15.6522226,73.8279781
CLOSED_TEMPORARILY,"MDR 1, Pether, Carambolim, Bainguinim, Goa 403104, India",St. John the Baptist Church,-1,ChIJ3Rk25rq-vzsR4l74nOBcqoc,"{'compound_code': 'FWHF+X2 Carambolim, Corlim, Goa', 'global_code': '7J7MFWHF+X2'}",4.4,"['church', 'place_of_worship', 'point_of_interest', 'establishment']",62,TRUE,church,-1,-1,15.4799497,73.9225441
OPERATIONAL,"Gandaulim, Cumbarjua, Goa 403110, India",St. Blaise Church,-1,ChIJCzaAWSu8vzsRODO4wKXK2vs,"{'compound_code': 'GW6R+WH Cumbarjua, Goa', 'global_code': '7J7MGW6R+WH'}",4.3,"['tourist_attraction', 'church', 'place_of_worship', 'point_of_interest', 'establishment']",46,-1,church,-1,-1,15.5123329,73.9414931
CLOSED_TEMPORARILY,"Diver Island, Piedade, Goa 403403, India",Our Lady of Piety Church,-1,ChIJEwdWYU--vzsRao8N7k9UurM,"{'compound_code': 'GWG2+55 Piedade, Goa', 'global_code': '7J7MGWG2+55'}",4.5,"['tourist_attraction', 'church', 'place_of_worship', 'point_of_interest', 'establishment']",354,TRUE,church,-1,-1,15.5254113,73.9003875
CLOSED_TEMPORARILY,"288, Malar, Goa 403403, India",São Matias Church,-1,ChIJ7xdnaGm-vzsR6F3zpkaMMUw,"{'compound_code': 'GWH8+3J Malar, Goa', 'global_code': '7J7MGWH8+3J'}",4.5,"['tourist_attraction', 'church', 'place_of_worship', 'point_of_interest', 'establishment']",76,TRUE,church,-1,-1,15.5277275,73.9165206
OPERATIONAL,"Rua Emídio Garcia, Altinho, Panaji, Goa 403001, India",Immaculate Conception Church,{'open_now': False},ChIJ952ZWo_AvzsRLoL0JZhAmKM,"{'compound_code': 'FRXH+FP Altinho, Panaji, Goa', 'global_code': '7J7MFRXH+FP'}",4.5,"['tourist_attraction', 'church', 'place_of_worship', 'point_of_interest', 'establishment']",13441,-1,church,-1,-1,15.4986628,73.8292705
CLOSED_TEMPORARILY,"Goa Velha Cemetery Rd, Goa Velha, Goa 403108, India",Churches Of Old Goa,-1,ChIJRWk3cN64vzsRAc4K2QOZJzM,"{'compound_code': 'CVVM+4F Goa Velha, Goa', 'global_code': '7J7MCVVM+4F'}",4.8,"['church', 'place_of_worship', 'point_of_interest', 'establishment']",5,TRUE,church,-1,-1,15.4427614,73.8837292
CLOSED_TEMPORARILY,"Naroa, Goa 403403, India",Naroa Church,-1,ChIJ____P3K-vzsRDRRb3RKvsX4,"{'compound_code': 'GWJG+67 Naroa, Goa', 'global_code': '7J7MGWJG+67'}",0,"['church', 'place_of_worship', 'point_of_interest', 'establishment']",0,TRUE,church,-1,-1,15.5305353,73.9256948
CLOSED_TEMPORARILY,"Pether, Carambolim, Bainguinim, Goa 403104, India",Missionaries of Charity-Mogadan,-1,ChIJrTFKJLu-vzsRR9O9YZmmzME,"{'compound_code': 'FWJF+C8 Carambolim, Corlim, Goa', 'global_code': '7J7MFWJF+C8'}",4.2,"['church', 'place_of_worship', 'point_of_interest', 'establishment']",9,TRUE,church,-1,-1,15.4810819,73.9232871
CLOSED_TEMPORARILY,"St Cruz, Goa 403005, India",Santa Cruz Church,-1,ChIJXUdVIFm_vzsR3203CpoRWx0,"{'compound_code': 'FRGV+CW St Cruz, Goa', 'global_code': '7J7MFRGV+CW'}",4.5,"['church', 'place_of_worship', 'point_of_interest', 'establishment']",365,TRUE,church,-1,-1,15.4761208,73.8447963
CLOSED_TEMPORARILY,"Britona Road, Bardez, Goa 403101, India",Church of Our Lady of Penha de França,-1,ChIJawURi4C_vzsRUvuoqhrIpiM,"{'compound_code': 'GR5V+J8 Alto Porvorim, Penha de França, Goa', 'global_code': '7J7MGR5V+J8'}",4.6,"['church', 'place_of_worship', 'point_of_interest', 'establishment']",104,TRUE,church,-1,-1,15.5090234,73.8433361
OPERATIONAL,"Unnamed Road, Chimbel, Goa 403006, India",Bethel Prayer House Indiranagar Chimbel Goa,-1,ChIJv-6KWRa_vzsRYVvd94d-dP4,"{'compound_code': 'FVQF+59 Chimbel, Goa', 'global_code': '7J7MFVQF+59'}",5,"['church', 'place_of_worship', 'point_of_interest', 'establishment']",1,-1,church,-1,-1,15.4879408,73.8734156
CLOSED_TEMPORARILY,"Montfort Vocational Training Centre, NH 4A, Mangaddo, Corlim, Goa 403110, India",Yeshua shalom church,-1,ChIJF1q-csq9vzsRs014E2kNrY4,"{'compound_code': 'FWWP+5Q Mangaddo, Gandaulim, Goa', 'global_code': '7J7MFWWP+5Q'}",0,"['church', 'place_of_worship', 'point_of_interest', 'establishment']",0,TRUE,church,-1,-1,15.4954486,73.9369465
OPERATIONAL,"Ilhas,, Ribandar, Goa 403006, India",Chimbel chapel,-1,ChIJmaY--XK_vzsRf-YPP68S8yc,"{'compound_code': 'FVX7+93 Ribandar, Goa', 'global_code': '7J7MFVX7+93'}",4.2,"['church', 'place_of_worship', 'point_of_interest', 'establishment']",82,-1,church,-1,-1,15.4984317,73.8627433
CLOSED_TEMPORARILY,"Fondvem, Panaji, Goa 403006, India",Our Lady Of Ajuda Church,-1,ChIJm5OvMnW_vzsRy9mWfd3vqxo,"{'compound_code': 'GV48+54 Panaji, Goa', 'global_code': '7J7MGV48+54'}",4.6,"['church', 'place_of_worship', 'point_of_interest', 'establishment']",22,TRUE,church,-1,-1,15.5054662,73.8653606
CLOSED_TEMPORARILY,"Jua, St Estevam Island, Goa 403106, India",St. Stephen's Church,-1,ChIJG6lbUtm9vzsRg_bluI3a36k,"{'compound_code': 'GWJR+2G St Estevam Island, Goa', 'global_code': '7J7MGWJR+2G'}",4.7,"['church', 'place_of_worship', 'point_of_interest', 'establishment']",54,TRUE,church,-1,-1,15.5300722,73.9412631
CLOSED_TEMPORARILY,"406, 4th Floor, Gera Imperium 2, above Ritz Classic Restaurant, Patto Centre, Panaji, Goa 403001, India",Bible Church Goa,-1,ChIJA03QsezAvzsRpCtFdbh5sOE,"{'compound_code': 'FRVP+8F Patto Centre, Panaji, Goa', 'global_code': '7J7MFRVP+8F'}",5,"['church', 'place_of_worship', 'health', 'point_of_interest', 'establishment']",15,TRUE,church,-1,-1,15.4933117,73.8362419
CLOSED_TEMPORARILY,"Chorao, Goa 403102, India",Our Lady of Grace Church,-1,ChIJC4GQZry_vzsRuMwWkx515fg,"{'compound_code': 'GVFC+23 Chorao, Goa', 'global_code': '7J7MGVFC+23'}",4.2,"['church', 'place_of_worship', 'point_of_interest', 'establishment']",17,TRUE,church,-1,-1,15.5226144,73.8701606
CLOSED_TEMPORARILY,"Ilhas, Ribandar, Goa 403006, India",St. Mary's Orthodox Syrian Church,-1,ChIJiw2b1HS_vzsRkh-yRSpLLPo,"{'compound_code': 'GV38+P3 Ribandar, Goa', 'global_code': '7J7MGV38+P3'}",4.5,"['church', 'place_of_worship', 'point_of_interest', 'establishment']",53,TRUE,church,-1,-1,15.5043478,73.865231
CLOSED_TEMPORARILY,"Chorao, Goa 403102, India",Temple Hanuman,-1,ChIJnegXm7y_vzsR27Ko5RI0Wb8,"{'compound_code': 'GVCC+H8 Chorao, Goa', 'global_code': '7J7MGVCC+H8'}",5,"['hindu_temple', 'place_of_worship', 'point_of_interest', 'establishment']",1,TRUE,hindu_temple,-1,-1,15.5213846,73.8708093
CLOSED_TEMPORARILY,"Chimbel, Goa 403006, India",Devi Chimulkarin Temple,-1,ChIJwcsSNhe_vzsRG9eYPKRzRtY,"{'compound_code': 'FVRG+97 Chimbel, Goa', 'global_code': '7J7MFVRG+97'}",4.4,"['hindu_temple', 'place_of_worship', 'point_of_interest', 'establishment']",14,TRUE,hindu_temple,-1,-1,15.4908881,73.8756293
CLOSED_TEMPORARILY,"Cumbarjua, Goa 403107, India",Dattatreya Temple,-1,ChIJe8vHb9K9vzsRh76Q0HOuGIg,"{'compound_code': 'GW8W+WQ Cumbarjua, Goa', 'global_code': '7J7MGW8W+WQ'}",4.5,"['hindu_temple', 'place_of_worship', 'point_of_interest', 'establishment']",4,TRUE,hindu_temple,-1,-1,15.5173199,73.9469227
CLOSED_TEMPORARILY,"Golwada, Goa 403107, India",Shri Pandurang Temple,-1,ChIJ0b6GKXW-vzsRa0qfThUbrOk,"{'compound_code': 'GWMM+X7 Golwada, Goa', 'global_code': '7J7MGWMM+X7'}",4.7,"['hindu_temple', 'place_of_worship', 'point_of_interest', 'establishment']",6,TRUE,hindu_temple,-1,-1,15.5349835,73.9331992
CLOSED_TEMPORARILY,"Chimbel, Goa 403006, India",Hanuman Temple,-1,ChIJJVhPzhC_vzsR_AuVwriI3Bk,"{'compound_code': 'FVRG+M2 Chimbel, Goa', 'global_code': '7J7MFVRG+M2'}",3.9,"['hindu_temple', 'place_of_worship', 'point_of_interest', 'establishment']",13,TRUE,hindu_temple,-1,-1,15.4917437,73.8751029
CLOSED_TEMPORARILY,"Shri Gajanan Temple, local Wada, Goltim-Navelim, Diwaddi Goa, Navelim, Goa 403403, India",Shri Gajanan Temple,-1,ChIJk3DJ106-vzsRANeoxWyUXFc,"{'compound_code': 'GVGX+H3 Navelim, Goa', 'global_code': '7J7MGVGX+H3'}",4.6,"['hindu_temple', 'place_of_worship', 'point_of_interest', 'establishment']",5,TRUE,hindu_temple,-1,-1,15.5264729,73.8976908
CLOSED_TEMPORARILY,"403107, Banastarim Bridge, Carambolim, Banastarim, Goa 403110, India",Shri Betal Temple,-1,ChIJDTf1S2q8vzsRYUjfc1-SPXM,"{'compound_code': 'FXQ7+RC Carambolim, Corlim, Goa', 'global_code': '7J7MFXQ7+RC'}",1,"['hindu_temple', 'place_of_worship', 'point_of_interest', 'establishment']",1,TRUE,hindu_temple,-1,-1,15.4895615,73.9635414
CLOSED_TEMPORARILY,"Cumbarjua, Goa 403107, India",Shree Mahadev Temple,-1,ChIJtQmVKi28vzsRtjtfFqVOpco,"{'compound_code': 'GW7V+9X Cumbarjua, Goa', 'global_code': '7J7MGW7V+9X'}",4.8,"['hindu_temple', 'place_of_worship', 'point_of_interest', 'establishment']",4,TRUE,hindu_temple,-1,-1,15.5133906,73.9448802
OPERATIONAL,"Carambolim, Azossim, Goa 403104, India",Mahadev Temple,-1,ChIJm6mrt7K-vzsRCAApcfdEgd0,"{'compound_code': 'FW8F+Q5 Carambolim, Corlim, Goa', 'global_code': '7J7MFW8F+Q5'}",4,"['hindu_temple', 'place_of_worship', 'point_of_interest', 'establishment']",10,-1,hindu_temple,-1,-1,15.4669414,73.922926
CLOSED_TEMPORARILY,"Carambolim, Boma, Goa 403115, India",Shiv Temple,-1,ChIJq0qbdnS8vzsRHLcn561E3QE,"{'compound_code': 'FXF7+WC Carambolim, Corlim, Goa', 'global_code': '7J7MFXF7+WC'}",5,"['hindu_temple', 'place_of_worship', 'point_of_interest', 'establishment']",2,TRUE,hindu_temple,-1,-1,15.47486,73.9635061
CLOSED_TEMPORARILY,"moula Gancim, Maina, Goa 403108, India",Shri Sateri Temple,-1,ChIJtxHgOi25vzsRMCW5PfD41QA,"{'compound_code': 'FV7X+FC Maina, Goa', 'global_code': '7J7MFV7X+FC'}",4.5,"['hindu_temple', 'place_of_worship', 'point_of_interest', 'establishment']",14,TRUE,hindu_temple,-1,-1,15.4637097,73.8985994
CLOSED_TEMPORARILY,"Shivaji Nagar, Curca, Goa 403108, India",Shiva Temple,-1,ChIJE7etIzK_vzsRi_SSyYPsxlU,"{'compound_code': 'FV9G+66 Shivaji Nagar, Curca, Goa', 'global_code': '7J7MFV9G+66'}",4.5,"['hindu_temple', 'place_of_worship', 'point_of_interest', 'establishment']",13,TRUE,hindu_temple,-1,-1,15.4680643,73.87552
CLOSED_TEMPORARILY,"Unnamed Road, Cumbarjua, Goa 403107, India",Vithoba Temple,-1,ChIJiZTJd9K9vzsR8MNpFMRwkWE,"{'compound_code': 'GW8X+X3 Cumbarjua, Goa', 'global_code': '7J7MGW8X+X3'}",5,"['hindu_temple', 'place_of_worship', 'point_of_interest', 'establishment']",2,TRUE,hindu_temple,-1,-1,15.5173962,73.947653
CLOSED_TEMPORARILY,"Rd to Divar (North) Ferry Terminal, Navelim, Goa 403403, India",Mahalakshmi Temple,-1,ChIJIXxEJlC-vzsRn9yhzzgtem0,"{'compound_code': 'GVCX+FC Navelim, Goa', 'global_code': '7J7MGVCX+FC'}",4.3,"['hindu_temple', 'place_of_worship', 'point_of_interest', 'establishment']",13,TRUE,hindu_temple,-1,-1,15.5211622,73.8985447
CLOSED_TEMPORARILY,"Tiswadi, Goa 403006, India",Hanuman Mandir,-1,ChIJ5exTC2m_vzsRJja_egpSDps,"{'compound_code': 'FVP5+X6 Tiswadi, Goa', 'global_code': '7J7MFVP5+X6'}",4.4,"['hindu_temple', 'place_of_worship', 'point_of_interest', 'establishment']",20,TRUE,hindu_temple,-1,-1,15.4874749,73.8580611
CLOSED_TEMPORARILY,"Akhada, St Estevam, Tiswadi, Goa 403106, India",Satya Narayan Temple,-1,ChIJnSGrLgu-vzsRX7sRRaZTwGE,"{'compound_code': 'GWPM+73 St Estevam, St Estevam Island, Goa', 'global_code': '7J7MGWPM+73'}",4.2,"['hindu_temple', 'place_of_worship', 'point_of_interest', 'establishment']",15,TRUE,hindu_temple,-1,-1,15.5356845,73.9326705
CLOSED_TEMPORARILY,"Pilar, Goa 403402, India",Shri Mahadev Temple,-1,ChIJNwvwICC5vzsRWCAKz1RIQV8,"{'compound_code': 'CVRR+H7 Pilar, Goa', 'global_code': '7J7MCVRR+H7'}",3,"['hindu_temple', 'place_of_worship', 'point_of_interest', 'establishment']",5,TRUE,hindu_temple,-1,-1,15.4414132,73.8906439
CLOSED_TEMPORARILY,"Mangaddo, Gandaulim, Goa 403110, India",Shri Sateri Temple Dhulapi Corlim,-1,ChIJ2SgeayO8vzsRbyAlCIYDEmU,"{'compound_code': 'FWWW+3C Mangaddo, Gandaulim, Goa', 'global_code': '7J7MFWWW+3C'}",4.4,"['hindu_temple', 'place_of_worship', 'point_of_interest', 'establishment']",10,TRUE,hindu_temple,-1,-1,15.4952066,73.946084
OPERATIONAL,"Near Grand Hyatt, Bambolim, Siridao, Bambolim, Goa 403108, India",Villa OneGoa,{'open_now': True},ChIJl7fhDbC5vzsRJE02xu-BxBE,"{'compound_code': 'CVV6+89 Bambolim, Goa', 'global_code': '7J7MCVV6+89'}",4.7,"['lodging', 'point_of_interest', 'establishment']",3,-1,lodging,-1,-1,15.4432655,73.8608829
OPERATIONAL,"Unnamed Road, Pomburpa, Goa 403523, India",Siesta Goa,-1,ChIJfbpd2kWVvzsRk2Y_QeUEub4,"{'compound_code': 'HV94+G8 Pomburpa, Goa', 'global_code': '7J7MHV94+G8'}",4.6,"['lodging', 'point_of_interest', 'establishment']",10,-1,lodging,-1,-1,15.5688673,73.8557732
OPERATIONAL,"2 villa no. 2, tropical woods, Britona, Goa 403501, India",OYO Home Luxe 17402 Pool View Villa 4BHK,{'open_now': True},ChIJ08pOCeq_vzsRfw4792MDRBU,"{'compound_code': 'GRFW+HR Alto Porvorim, Penha de França, Goa', 'global_code': '7J7MGRFW+HR'}",3.5,"['lodging', 'point_of_interest', 'establishment']",20,-1,lodging,-1,-1,15.5239774,73.8470906
OPERATIONAL,"National Hwy 4A Bypass Rd, Ilhas, Ribandar, Goa 403006, India",Casinha Raibandar,-1,ChIJLXPa4Aq_vzsRQ89Xtp0yFnI,"{'compound_code': 'GV48+3R Ribandar, Goa', 'global_code': '7J7MGV48+3R'}",4.6,"['lodging', 'point_of_interest', 'establishment']",83,-1,lodging,-1,-1,15.5051688,73.8670546
OPERATIONAL,"Lawande Panthea, Curca, Bambolim, Goa 403202, India",OYO 11900 Exotic 3BHK,{'open_now': True},ChIJFRDcQYq5vzsRlDpXRoCabIA,"{'compound_code': 'FV39+6C Bambolim, Goa', 'global_code': '7J7MFV39+6C'}",4.4,"['lodging', 'point_of_interest', 'establishment']",35,-1,lodging,-1,-1,15.453,73.868528
OPERATIONAL,"Curca Canturlim, near the Curca Panchayat, Bambolim, Goa 403108, India",Uberlife Rooms Lake View,{'open_now': True},ChIJS_tegdK4vzsRKBNxWkIkt7M,"{'compound_code': 'FV6G+6R Bambolim, Goa', 'global_code': '7J7MFV6G+6R'}",4.5,"['lodging', 'point_of_interest', 'establishment']",34,-1,lodging,-1,-1,15.4605155,73.8770887
OPERATIONAL,"Sundays Forever, Village Calvim, Aldona, Bardez,, North Goa, Goa, 403508, India",Sundays Forever- India's Finest Vacation Homes,{'open_now': True},ChIJj_yR-XeVvzsRb9qtdpk_7xc,"{'compound_code': 'HV8Q+H8 Maem, Goa', 'global_code': '7J7MHV8Q+H8'}",4.6,"['lodging', 'point_of_interest', 'establishment']",25,-1,lodging,-1,-1,15.56643,73.888332
OPERATIONAL,"karabhat-belbhat , near at, St Bartholomew Church Rd, Chorao, Goa 403102, India",Island Pool Villa,-1,ChIJ42nqtNC_vzsRJmMn4XADYOs,"{'compound_code': 'GVXH+79 Chorao, Goa', 'global_code': '7J7MGVXH+79'}",4.9,"['lodging', 'point_of_interest', 'establishment']",93,-1,lodging,-1,-1,15.5482324,73.8784
OPERATIONAL,"Near Tonca Ferry Terminal Candola, Marcela, Ponda, Goa 403107, India",Riverside Nest,-1,ChIJKdffZcu9vzsRlr4hIZclVfo,"{'compound_code': 'GXM5+J3 Betqui, Goa', 'global_code': '7J7MGXM5+J3'}",5,"['lodging', 'point_of_interest', 'establishment']",1,-1,lodging,-1,-1,15.5340974,73.9577457
OPERATIONAL,"PANDAO VADDO, SURVEY NO. 438/16 VILLAGE CHORAO, IIHAS GOA, Chorao, Goa 403523, India",Terra Rosa,-1,ChIJJYYMzX-VvzsRLMXAs94Q4zQ,"{'compound_code': 'HV4P+5F Chorao, Goa', 'global_code': '7J7MHV4P+5F'}",4.5,"['lodging', 'point_of_interest', 'establishment']",10,-1,lodging,-1,-1,15.555441,73.8861969
OPERATIONAL,"FLAT No. FF-1 (First Floor),HOUSE NO. 128/23/65-05 Lawande Panthea Goa, Goa 403202, India",OYO 11897 Greek Style 2BHK,{'open_now': True},ChIJyfql98i4vzsR00R-cb15Tbs,"{'compound_code': 'FV39+6C Curca, Goa', 'global_code': '7J7MFV39+6C'}",4.1,"['lodging', 'point_of_interest', 'establishment']",164,-1,lodging,-1,-1,15.453,73.868528
OPERATIONAL,"Amrapali, 1105 Morgado Vaddo, Maina, Goa 403108, India",Café Amrapali,{'open_now': True},ChIJj8uHucG4vzsRUSxVLeZljYg,"{'compound_code': 'CVR9+HM Maina, Goa', 'global_code': '7J7MCVR9+HM'}",4.3,"['lodging', 'restaurant', 'food', 'point_of_interest', 'establishment']",195,-1,lodging,-1,-1,15.4414777,73.86921
OPERATIONAL,"1105 Morgado Vaddo, Goa Velha, Goa 403108, India",Amrapali • House of Grace,-1,ChIJr-dXl9W5vzsRPAi0FxPA2Cs,"{'compound_code': 'CVR9+JW Goa Velha, Goa', 'global_code': '7J7MCVR9+JW'}",4.4,"['lodging', 'point_of_interest', 'establishment']",80,-1,lodging,-1,-1,15.4416142,73.8698401
OPERATIONAL,"Bambolim beach property, No.2311, Firguem Bhatt, siridao, Tiswadi, North, Goa 403108, India",Hotel Marosa,{'open_now': True},ChIJr3s06Tq5vzsRZ8i3MVu3fN4,"{'compound_code': 'CVR7+7H Siridao, Goa', 'global_code': '7J7MCVR7+7H'}",4.9,"['lodging', 'point_of_interest', 'establishment']",7,-1,lodging,-1,-1,15.4407215,73.8639594
OPERATIONAL,"House No. M-268/C, Madkaikar villas, Village Panchayat Se, Ella, village, Goa Velha, Goa 403110, India",Lakeview Greens Villa: A 5BHK Fully-Furnished Luxury Rental Vacation Home for Family/Group Stay!,{'open_now': True},ChIJqabyzqi_vzsR6UZTSShAHRk,"{'compound_code': 'FWWG+9H Goa Velha, Goa', 'global_code': '7J7MFWWG+9H'}",4.5,"['lodging', 'point_of_interest', 'establishment']",26,-1,lodging,-1,-1,15.4959769,73.9263825
OPERATIONAL,"Carambolim, Kundai, Goa 403115, India",SPOT ON 44584 Hotel Vaishali Residency,{'open_now': True},ChIJX6NZAYu7vzsR0GEjJWmXdSU,"{'compound_code': 'FX86+FR Carambolim, Corlim, Goa', 'global_code': '7J7MFX86+FR'}",3.2,"['lodging', 'point_of_interest', 'establishment']",129,-1,lodging,-1,-1,15.4661504,73.9620812
OPERATIONAL,"Lane 2, Hillside Enclave Cabesa, Santa Cruz, Panaji, Goa 403005, India",The Villa,-1,ChIJVVVFylO_vzsRP5L2uEtIfxw,"{'compound_code': 'FV72+F4 Panaji, Goa', 'global_code': '7J7MFV72+F4'}",4.9,"['lodging', 'point_of_interest', 'establishment']",21,-1,lodging,-1,-1,15.4636426,73.8502566
OPERATIONAL,"Santa Cruz, Panaji, Goa 403202, India",OYO 48771 Independent Villa,-1,ChIJYV9qif6_vzsRS9gl1f4-jz0,"{'compound_code': 'FRGX+F6 Panaji, Goa', 'global_code': '7J7MFRGX+F6'}",3.9,"['lodging', 'point_of_interest', 'establishment']",13,-1,lodging,-1,-1,15.4762442,73.8480954
OPERATIONAL,"1, Queen of Angel Chapel Rd, Maina, Goa 403108, India",OYO 23683 Luxurious 2BHK Goa Velha,-1,ChIJSeLXzAy5vzsROVglhYYgWdM,"{'compound_code': 'CVQ9+V8 Maina, Goa', 'global_code': '7J7MCVQ9+V8'}",3.4,"['lodging', 'point_of_interest', 'establishment']",11,-1,lodging,-1,-1,15.439699,73.868269
OPERATIONAL,"House No:228, Bairro Alto, Fondvem, Ribandar,, Panjim Old Goa Road, Panjim - Belagavi Rd, Ilhas, Ribandar, Goa 403006, India",Casa Amaya,-1,ChIJ7Q4Wgwy_vzsRVHTBDR7PJns,"{'compound_code': 'GV29+M3 Ribandar, Goa', 'global_code': '7J7MGV29+M3'}",3.6,"['lodging', 'point_of_interest', 'establishment']",8,-1,lodging,-1,-1,15.5017458,73.8676903
CLOSED_TEMPORARILY,"Banastarim, Goa 403115, India",Masjid,-1,ChIJK7xdMRO8vzsRSuPd_BqsYEA,"{'compound_code': 'FXM5+PM Banastarim, Goa', 'global_code': '7J7MFXM5+PM'}",4.1,"['mosque', 'place_of_worship', 'point_of_interest', 'establishment']",27,TRUE,mosque,-1,-1,15.4842597,73.9591305
CLOSED_TEMPORARILY,"Dangui Colony, Mapusa, Goa 403519, India","Eidgah Masjid,Mapusa",-1,ChIJ_eFq0B3rvzsR5lAUQ3GDrWs,"{'compound_code': 'HRW6+MP Mapusa, Goa', 'global_code': '7J7MHRW6+MP'}",4.5,"['mosque', 'place_of_worship', 'point_of_interest', 'establishment']",24,TRUE,mosque,-1,-1,15.5967048,73.8118621
CLOSED_TEMPORARILY,"Demani, Cuncolim, Goa 403703, India",Cuncolim Mosque,-1,ChIJhVJY6GxNvjsRUUsvvFUHBEY,"{'compound_code': '5295+W7 Demani, Cuncolim, Goa', 'global_code': '7J7P5295+W7'}",4.3,"['mosque', 'place_of_worship', 'point_of_interest', 'establishment']",50,TRUE,mosque,-1,-1,15.16977,74.0081294
CLOSED_TEMPORARILY,"Dabolim – Pale – Velsao – Colva – Benaulim – Varca – Cavelossim, Zuarinagar, Sancoale, Goa 403726, India",Minara Masjid Birla مسجد,-1,ChIJyRIoQC-4vzsRLYLs4VOQGSo,"{'compound_code': '9VHH+PC Zuarinagar, Sancoale, Goa', 'global_code': '7J7M9VHH+PC'}",4.2,"['mosque', 'place_of_worship', 'point_of_interest', 'establishment']",55,TRUE,mosque,-1,-1,15.3793291,73.878519
CLOSED_TEMPORARILY,"NH17B, near Caculo Ford, Verna, Goa 403722, India",Masjid مسجد,-1,ChIJTV1mzU-3vzsRCwjWZxkV_AQ,"{'compound_code': '9W7G+FR Verna, Goa', 'global_code': '7J7M9W7G+FR'}",4.4,"['mosque', 'place_of_worship', 'point_of_interest', 'establishment']",39,TRUE,mosque,-1,-1,15.3637152,73.9270556
CLOSED_TEMPORARILY,"Bhatlem, Panaji, Goa 403001, India",Sunni Madani Masjid Bhatlem,-1,ChIJTxeA4JfAvzsRZAKwVed36x8,"{'compound_code': 'FRJH+XH Panaji, Goa', 'global_code': '7J7MFRJH+XH'}",4.5,"['mosque', 'place_of_worship', 'point_of_interest', 'establishment']",17,TRUE,mosque,-1,-1,15.4824118,73.828995
CLOSED_TEMPORARILY,"Navelim, Goa 403707, India",Masjid-E-Quba,-1,ChIJra3xneyzvzsRHZjxKnf7ly0,"{'compound_code': '7X83+CC Navelim, Goa', 'global_code': '7J7M7X83+CC'}",4.3,"['mosque', 'place_of_worship', 'point_of_interest', 'establishment']",45,TRUE,mosque,-1,-1,15.2660526,73.9535796
CLOSED_TEMPORARILY,"Goa 403506, India",Nanus Sunni Masjid,-1,ChIJJYA_R2KhvzsRQXbSmACrk2g,"{'compound_code': 'G46G+G9 Ansolem, Goa', 'global_code': '7J7PG46G+G9'}",4.3,"['mosque', 'place_of_worship', 'point_of_interest', 'establishment']",15,TRUE,mosque,-1,-1,15.5112865,74.1259116
OPERATIONAL,"Bicholim, Goa 403504, India",Namazgah,-1,ChIJX91kyHKWvzsRqMI1tBk80e4,"{'compound_code': 'HWJW+XC Bicholim, Goa', 'global_code': '7J7MHWJW+XC'}",4.5,"['mosque', 'tourist_attraction', 'place_of_worship', 'point_of_interest', 'establishment']",27,-1,mosque,-1,-1,15.5824605,73.9461171
OPERATIONAL,"Chandrawado, SBI Housing Colony, Fatorda, Goa 403602, India",Masjid e Bilal مسجد,-1,ChIJC71SZGaxvzsR9XrW767RpgE,"{'compound_code': '7XW7+PQ Fatorda, Goa', 'global_code': '7J7M7XW7+PQ'}",4.8,"['mosque', 'place_of_worship', 'point_of_interest', 'establishment']",49,-1,mosque,-1,-1,15.2968058,73.9644204
CLOSED_TEMPORARILY,"Ambaji, Margao, Goa 403602, India",As Siraatul Mustaqeem Masjid,-1,ChIJWQTIAmaxvzsRveNQ5eDW4OQ,"{'compound_code': '7XX7+JV Ambaji, Margao, Goa', 'global_code': '7J7M7XX7+JV'}",4.4,"['mosque', 'place_of_worship', 'point_of_interest', 'establishment']",59,TRUE,mosque,-1,-1,15.2990003,73.9646806
CLOSED_TEMPORARILY,"Masjid E Noorani, Electricity Dept Staff Residential Colony, Ponda, Goa 403401, India",Masjid E Noorani,-1,ChIJEwArKcC6vzsRzPYVKcPFqpQ,"{'compound_code': 'C244+MP Ponda, Goa', 'global_code': '7J7PC244+MP'}",4.6,"['mosque', 'place_of_worship', 'point_of_interest', 'establishment']",47,TRUE,mosque,-1,-1,15.4067264,74.0068651
OPERATIONAL,"Masjid Road, Cavorim Covatem, Guirdolim, Goa 403714, India",SUNNI JAMIA MASJID CHANDOR,-1,ChIJxVJ-oZGtvzsR1o2eKyPoADY,"{'compound_code': '728J+6Q Cavorim Covatem, Guirdolim, Goa', 'global_code': '7J7P728J+6Q'}",4.9,"['mosque', 'place_of_worship', 'point_of_interest', 'establishment']",27,-1,mosque,-1,-1,15.2656208,74.0319447
OPERATIONAL,"Oceanic Hotel Road, Palolem, Canacona, Goa 403702, India",Sunni Islamic Jamia Masjid,-1,ChIJ8eshPbNavjsROY07VcPP-XI,"{'compound_code': '224J+4G Palolem, Canacona, Goa', 'global_code': '7J7P224J+4G'}",3.9,"['mosque', 'place_of_worship', 'point_of_interest', 'establishment']",23,-1,mosque,-1,-1,15.0053097,74.0313319
CLOSED_TEMPORARILY,"Pilar, Goa 403402, India",Masjid us Salam,-1,ChIJydZNUx65vzsRF8gQNqm83_I,"{'compound_code': 'CVQR+9H Pilar, Goa', 'global_code': '7J7MCVQR+9H'}",4.2,"['mosque', 'place_of_worship', 'point_of_interest', 'establishment']",17,TRUE,mosque,-1,-1,15.4384811,73.8914667
CLOSED_TEMPORARILY,"Muslim Wada, Konadi,, Corgao, Goa 403512, India",Sunni Khwaja Masjid and Dargah,-1,ChIJDTuYjwLyvzsR142ASF-DuZE,"{'compound_code': 'PPPX+4C Corgao, Goa', 'global_code': '7J7MPPPX+4C'}",4.6,"['mosque', 'place_of_worship', 'point_of_interest', 'establishment']",44,TRUE,mosque,-1,-1,15.7352684,73.7485699
CLOSED_TEMPORARILY,"Islampur, Road, Sasmolem, Vasco da Gama, Goa 403802, India",Masjid E Aqsa,-1,ChIJ-9AvdODHvzsRoIuo1Zfc878,"{'compound_code': '9RQ6+QM Sasmolem, Mormugao, Goa', 'global_code': '7J7M9RQ6+QM'}",4.6,"['mosque', 'place_of_worship', 'point_of_interest', 'establishment']",5,TRUE,mosque,-1,-1,15.389443,73.8117216
CLOSED_TEMPORARILY,"Mapusa, Goa 403519, India",Raza Masjid,-1,ChIJYwMBQUDrvzsRfjxTW8h1OUk,"{'compound_code': 'JR9C+Q2 Mapusa, Goa', 'global_code': '7J7MJR9C+Q2'}",4,"['mosque', 'place_of_worship', 'point_of_interest', 'establishment']",22,TRUE,mosque,-1,-1,15.6194593,73.8200485
CLOSED_TEMPORARILY,"Sasmolem, Mormugao, Goa 403802, India",Taiba Masjid مسجد,-1,ChIJK7s4R8fHvzsRrGRu_0bUMJE,"{'compound_code': '9RQ6+FH Sasmolem, Mormugao, Goa', 'global_code': '7J7M9RQ6+FH'}",4.3,"['mosque', 'place_of_worship', 'point_of_interest', 'establishment']",27,TRUE,mosque,-1,-1,15.3886504,73.8114608
CLOSED_TEMPORARILY,"Aquem Alto, Margao, Goa 403601, India",Siddique Masjid,-1,ChIJE4a0sM2zvzsRWLtrNlEzmbY,"{'compound_code': '7XGH+3H Aquem Alto, Margao, Goa', 'global_code': '7J7M7XGH+3H'}",4.6,"['mosque', 'place_of_worship', 'point_of_interest', 'establishment']",67,TRUE,mosque,-1,-1,15.2751959,73.9789218
OPERATIONAL,"Edapally - Panvel Hwy, opp. Goa Medical College and Hospital, Bambolim, Goa 403202, India",Renuka Hotel,{'open_now': True},ChIJc19-qE2_vzsRz0woVArXrE4,"{'compound_code': 'FV74+Q9 Bambolim, Goa', 'global_code': '7J7MFV74+Q9'}",3.8,"['restaurant', 'food', 'point_of_interest', 'establishment']",146,-1,restaurant,-1,-1,15.4644281,73.8558899
OPERATIONAL,"Fatorda, Margao, Goa 403602, India",Sincro Restaurant,{'open_now': True},ChIJK8RSl2yxvzsRZK0XmkGEaZ8,"{'compound_code': '7XV8+6M Fatorda, Goa', 'global_code': '7J7M7XV8+6M'}",3.7,"['restaurant', 'bar', 'food', 'point_of_interest', 'establishment']",65,-1,restaurant,-1,-1,15.2930973,73.9666858
OPERATIONAL,"Colva 4 Cross Road, Near To Lion's Club, Sernabatim, Rd, Colva, Goa 403708, India",Viva Goa Restaurant & Bar,{'open_now': False},ChIJMVGP9xq0vzsRzUdynuZIrnk,"{'compound_code': '7WGC+4H Colva, Goa', 'global_code': '7J7M7WGC+4H'}",4.1,"['bar', 'restaurant', 'food', 'point_of_interest', 'establishment']",521,-1,restaurant,2,-1,15.2753684,73.9214129
OPERATIONAL,"near brits palace, Mercurim, Agaçaim, Goa 403104, India",Manglorian Valanca restaurant,-1,ChIJmR1a7wW5vzsRqf9inu2p_QQ,"{'compound_code': 'CVGX+7V Agaçaim, Goa', 'global_code': '7J7MCVGX+7V'}",4,"['restaurant', 'food', 'point_of_interest', 'establishment']",1,-1,restaurant,-1,-1,15.425641,73.8996563
OPERATIONAL,"Chapora, Chapora Main St, Dabhol Wada, Vagator, Goa 403509, India",Oppa's Restaurant,{'open_now': True},ChIJn_Gqi2TpvzsR_08agKO7Z1Q,"{'compound_code': 'JP3R+76 Vagator, Goa', 'global_code': '7J7MJP3R+76'}",4.8,"['finance', 'restaurant', 'food', 'point_of_interest', 'establishment']",123,-1,restaurant,-1,-1,15.6031332,73.7406162
CLOSED_TEMPORARILY,"9/49, Porobus waddo, Cuncolim, Goa 403703, India",Achi Corner Restaurant 'N' Catering,-1,ChIJCf1JNTxNvjsRmWFRbVwyPGQ,"{'compound_code': '5XHX+WP Cuncolim, Goa', 'global_code': '7J7M5XHX+WP'}",3.8,"['restaurant', 'food', 'point_of_interest', 'establishment']",127,TRUE,restaurant,2,-1,15.1797911,73.9992868
OPERATIONAL,"Opposite Hotel Alila Diwa Goa ,Salcette Hotel, Majorda, Goa 403713, India",The Camron Restaurant,{'open_now': True},ChIJkTtBqeq2vzsRes8kwy7pVSk,"{'compound_code': '8W46+JV Majorda, Goa', 'global_code': '7J7M8W46+JV'}",4.5,"['restaurant', 'food', 'point_of_interest', 'establishment']",564,-1,restaurant,2,-1,15.3065185,73.9122086
CLOSED_TEMPORARILY,"Dando Beach, beside Santana Beach Resort, Candolim, Goa 403515, India",Calamari Bathe & Binge,-1,ChIJr-ewUJ7BvzsRkZfHne3HAyw,"{'compound_code': 'GQ48+FM Candolim, Goa', 'global_code': '7J7MGQ48+FM'}",4.4,"['restaurant', 'food', 'point_of_interest', 'establishment']",4658,TRUE,restaurant,2,-1,15.5061592,73.766731
OPERATIONAL,"Bazaarwado, Sanguem, Goa 403704, India",Shantadurga Veg And Non Veg Restaurant,-1,ChIJAQAAAD-rvzsRLZy3B-FG4Cw,"{'compound_code': '65J2+35 Sanguem, Goa', 'global_code': '7J7P65J2+35'}",4.6,"['restaurant', 'food', 'point_of_interest', 'establishment']",7,-1,restaurant,-1,-1,15.2302417,74.1504048
OPERATIONAL,"Bhatti Waddo, Nerul, Goa 403114, India",Bhatti Village Family Bar & Restaurant,{'open_now': False},ChIJbdnGvLHBvzsR3x_kSzqU2yE,"{'compound_code': 'GQ8P+3V Nerul, Goa', 'global_code': '7J7MGQ8P+3V'}",4.3,"['bar', 'restaurant', 'food', 'point_of_interest', 'establishment']",486,-1,restaurant,2,-1,15.5152204,73.7871838
OPERATIONAL,"Agonda Beach Rd, Agonda, Goa 403702, India",Green Valley Restaurant,{'open_now': True},ChIJh4ayzJhPvjsR_Rdc4-OsP9U,"{'compound_code': '2XQQ+6H Agonda, Goa', 'global_code': '7J7M2XQQ+6H'}",4.6,"['restaurant', 'bar', 'food', 'point_of_interest', 'establishment']",29,-1,restaurant,-1,-1,15.0380965,73.9888899
OPERATIONAL,"House 78, Mae De Deus Vaddo, Chogm Rd, Sangolda, Goa 403511, India",Ping's Bia Hoi,{'open_now': True},ChIJBQGh8Y7BvzsRxbSGm-CBnqY,"{'compound_code': 'GRW4+79 Sangolda, Goa', 'global_code': '7J7MGRW4+79'}",4.5,"['restaurant', 'food', 'point_of_interest', 'establishment']",180,-1,restaurant,-1,-1,15.5456829,73.8059507
OPERATIONAL,"NH 66, Defence Colony, Porvorim, Penha de França, Goa 403501, India",Omg restaurant,-1,ChIJcZ3h4EDBvzsR-_b0QypG_Ug,"{'compound_code': 'GRMF+2R Porvorim, Aradi Socorro, Goa', 'global_code': '7J7MGRMF+2R'}",0,"['restaurant', 'food', 'point_of_interest', 'establishment']",0,-1,restaurant,-1,-1,15.532566,73.8245282
OPERATIONAL,"Mapusa – Anjuna - Road Near Petrol Pump, Zor Vaddo,H.No-219, Anjuna, Goa 403509, India",Teja Sea food Restaurant & Bike Rental service,{'open_now': True},ChIJETKvQ9frvzsRa2oR5dWDkYc,"{'compound_code': 'JQ22+5X Anjuna, Goa', 'global_code': '7J7MJQ22+5X'}",4.6,"['restaurant', 'food', 'point_of_interest', 'establishment']",131,-1,restaurant,1,-1,15.6004737,73.7524339
OPERATIONAL,"Baga Anjuna road,sim vaddo ,near park Regis hotel, Arpora, near ram mandir, Baga, Goa 403516, India",Drunken hut bar and restaurant,-1,ChIJkdrmQJ7rvzsR2_ovMJK4Dxc,"{'compound_code': 'HQF5+WR Baga, Goa', 'global_code': '7J7MHQF5+WR'}",4.8,"['restaurant', 'food', 'point_of_interest', 'establishment']",66,-1,restaurant,-1,-1,15.5748734,73.7595133
OPERATIONAL,"260, Main Road, Palolem Beach, Canacona, Goa 403702, India",Magic Italy Authentic Italian Restaurant & Pizzeria,{'open_now': True},ChIJPY_cF1FFvjsRIplAUIzFCQo,"{'compound_code': '227C+2V Canacona, Goa', 'global_code': '7J7P227C+2V'}",4.5,"['restaurant', 'food', 'point_of_interest', 'establishment']",860,-1,restaurant,2,-1,15.01261,74.0222168
OPERATIONAL,"Orel, Assolna, Goa, India",Paes Pearl Restaurant,{'open_now': True},ChIJWwFpMttMvjsRkUSyjECs210,"{'compound_code': '5XJC+XH Assolna, Goa', 'global_code': '7J7M5XJC+XH'}",4.5,"['restaurant', 'food', 'point_of_interest', 'establishment']",2,-1,restaurant,-1,-1,15.1824673,73.9714867
OPERATIONAL,"Pintos Vaddo, Candolim, Goa 403515, India",SHAMEES,{'open_now': True},ChIJoeSEUZTBvzsR52qP0L5t4kQ,"{'compound_code': 'GQ99+R5 Candolim, Goa', 'global_code': '7J7MGQ99+R5'}",4.3,"['restaurant', 'food', 'point_of_interest', 'establishment']",3,-1,restaurant,-1,-1,15.51961,73.767973
OPERATIONAL,"259/2 A , Near Baga Bridge Baga, Arpora, Goa 403516, India",Jamies Restaurant,{'open_now': False},ChIJ-UOqKBzqvzsRNWCenG2ynyQ,"{'compound_code': 'HQ82+42 Arpora, Goa', 'global_code': '7J7MHQ82+42'}",4.4,"['restaurant', 'food', 'point_of_interest', 'establishment']",239,-1,restaurant,2,-1,15.565352,73.750042
OPERATIONAL,"Rua de Ourém, Fontainhas (quarter), Mala, Panaji, Goa 403001, India",Sitara Restaurant,{'open_now': True},ChIJITetbIXAvzsR4fr12Kco0lA,"{'compound_code': 'FRWJ+5P Mala, Panaji, Goa', 'global_code': '7J7MFRWJ+5P'}",3.7,"['restaurant', 'food', 'point_of_interest', 'establishment']",169,-1,restaurant,2,-1,15.4954195,73.8318036
-1,"Bambolim, Goa, India",Bambolim,-1,ChIJy5EKikS_vzsRzUu5Va5_BpU,-1,-1,"['locality', 'political']",-1,-1,tourist_attraction,-1,-1,15.4650357,73.8656667
CLOSED_TEMPORARILY,"Chorao Island, Ilhas, Ribandar, Goa 403006, India",Dr. Salim Ali Bird Sanctuary,-1,ChIJYU0mP3W_vzsReXl288rhJ9M,"{'compound_code': 'GV7C+65 Ribandar, Goa', 'global_code': '7J7MGV7C+65'}",3.9,"['tourist_attraction', 'park', 'point_of_interest', 'establishment']",2346,TRUE,tourist_attraction,-1,-1,15.5130468,73.8704154
CLOSED_TEMPORARILY,"Goa 403110, India",Beer Point,-1,ChIJX1KS1I6_vzsRjYt7Ldnltfs,"{'compound_code': 'FVXQ+W7 Tiswadi, Goa', 'global_code': '7J7MFVXQ+W7'}",4.7,"['tourist_attraction', 'point_of_interest', 'establishment']",3,TRUE,tourist_attraction,-1,-1,15.4998597,73.8882259
CLOSED_TEMPORARILY,"#1239, Cross Farm, Tolto, Tiswadi, Saint Estevam., Goa, 403106, India",Crocodile trip Jake The Snake at St.Estevam,-1,ChIJAQAAQMK9vzsRWArvncAtlfE,"{'compound_code': 'GWCM+X3 St Estevam Island, Goa', 'global_code': '7J7MGWCM+X3'}",4.1,"['tourist_attraction', 'point_of_interest', 'establishment']",45,TRUE,tourist_attraction,-1,-1,15.522398,73.932715
CLOSED_TEMPORARILY,"Verem, Goa 403114, India",Reis Magos Fort,-1,ChIJYeGT3PDAvzsRS8Ckp0KjgGs,"{'compound_code': 'FRW5+RR Verem, Goa', 'global_code': '7J7MFRW5+RR'}",4.4,"['point_of_interest', 'establishment']",7593,TRUE,tourist_attraction,-1,-1,15.4970692,73.8095286
OPERATIONAL,"Goa Velha, Goa 403110, India",Churches and convents of Goa,-1,ChIJuYbOebq_vzsR4EdqL-jhF2E,"{'compound_code': 'GW26+WP Goa Velha, Goa', 'global_code': '7J7MGW26+WP'}",4.2,"['point_of_interest', 'establishment']",6,-1,tourist_attraction,-1,-1,15.5023377,73.9117653
CLOSED_TEMPORARILY,"Old Goa Road, Goa Velha, Goa 403110, India",Relics Of St. Francis Xavier,-1,ChIJ3VHkufK-vzsR-qTYDyPRyq4,"{'compound_code': 'GW26+8M Goa Velha, Goa', 'global_code': '7J7MGW26+8M'}",4.6,"['tourist_attraction', 'point_of_interest', 'establishment']",80,TRUE,tourist_attraction,-1,-1,15.5007814,73.9117
CLOSED_TEMPORARILY,"Ponda, Pisgal, Priol, Goa 403401, India",Mystic Woods by The Butterfly Conservatory Of Goa,-1,ChIJI2vEMie7vzsRj6GD15iAWac,"{'compound_code': 'C2H6+RX Priol, Goa', 'global_code': '7J7PC2H6+RX'}",3.6,"['tourist_attraction', 'park', 'point_of_interest', 'establishment']",378,TRUE,tourist_attraction,-1,-1,15.4295587,74.0124491
CLOSED_TEMPORARILY,"Convent of Santa Monica, Goa Velha, Goa 403402, India",Museum Of Christian Art,-1,ChIJAQAAAIO-vzsRAl-vdrBfS3U,"{'compound_code': 'GW24+GR Goa Velha, Goa', 'global_code': '7J7MGW24+GR'}",4.3,"['museum', 'tourist_attraction', 'point_of_interest', 'establishment']",215,TRUE,tourist_attraction,-1,-1,15.5012638,73.9070678
OPERATIONAL,"Rudreshwar Colony, Sanquelim, Goa 403505, India",Harvalem Waterfalls,{'open_now': True},ChIJVUbAVEy9vzsRS6uKBv4zNmI,"{'compound_code': 'H22G+CM Sanquelim, Goa', 'global_code': '7J7PH22G+CM'}",4.1,"['tourist_attraction', 'point_of_interest', 'establishment']",3265,-1,tourist_attraction,-1,-1,15.5510768,74.0266517
-1,"Baga Beach, Goa 403519, India",Baga Beach,-1,ChIJ_96h2BzqvzsR4ME17sBmcLo,-1,4.5,"['natural_feature', 'establishment']",15824,-1,tourist_attraction,-1,-1,15.5552787,73.7517307
-1,"Calangute Beach, Goa 403519, India",Calangute Beach,-1,ChIJK-30SAHqvzsRF30lXa0vWcs,-1,4.4,"['natural_feature', 'establishment']",11795,-1,tourist_attraction,-1,-1,15.549441,73.7534857
CLOSED_TEMPORARILY,"Old Goa, Goa Velha, Goa 403402, India",Wax World Museum,-1,ChIJ751RXI2-vzsRLoDZRIDrQc4,"{'compound_code': 'GW27+4G Goa Velha, Goa', 'global_code': '7J7MGW27+4G'}",3.2,"['tourist_attraction', 'museum', 'point_of_interest', 'establishment']",1086,TRUE,tourist_attraction,-1,-1,15.5002844,73.9137606
CLOSED_TEMPORARILY,"National Highway 4A, Fondvem, Ribandar, Goa 403110, India",Our Lady of Help Church,-1,ChIJ2xc1F_u-vzsRdd5PIkw8Qk4,"{'compound_code': 'GV48+55 Ribandar, Goa', 'global_code': '7J7MGV48+55'}",3.5,"['church', 'place_of_worship', 'point_of_interest', 'establishment']",4,TRUE,church,-1,-1,15.505418,73.8654364
CLOSED_TEMPORARILY,"Old Goa Rd, Goa Velha, Goa 403110, India",Santa Monica convent,-1,ChIJGXmddo2-vzsRbm-Ce7I3BuM,"{'compound_code': 'GW28+93 Goa Velha, Goa', 'global_code': '7J7MGW28+93'}",4.8,"['place_of_worship', 'point_of_interest', 'establishment']",6,TRUE,church,-1,-1,15.500979,73.9151666
CLOSED_TEMPORARILY,"Siridao, Goa 403108, India",Holy Cross Shrine Bambolim,-1,ChIJK84awre4vzsRHJvfRAEHflo,"{'compound_code': 'FV27+VP Siridao, Goa', 'global_code': '7J7MFV27+VP'}",4.7,"['tourist_attraction', 'church', 'place_of_worship', 'point_of_interest', 'establishment']",273,TRUE,church,-1,-1,15.4521705,73.8643258
CLOSED_TEMPORARILY,"Mandur, Goa 403104, India",Lady of Amparo Church Mandur,-1,ChIJU0XsoUW5vzsR-seEx9CpQjU,"{'compound_code': 'FW3C+99 Mandur, Goa', 'global_code': '7J7MFW3C+99'}",4.5,"['church', 'place_of_worship', 'point_of_interest', 'establishment']",22,TRUE,church,-1,-1,15.4533946,73.9209787
CLOSED_TEMPORARILY,"165, Avenida Teófilo Braga, Electricity Colony, Santa Inez, Taleigao, Goa 403001, India",Panjim Church,-1,ChIJI3Wr2pnAvzsRsvch4o6IKVk,"{'compound_code': 'FRXH+FP Taleigao, Goa', 'global_code': '7J7MFRXH+FP'}",4.5,"['church', 'tourist_attraction', 'place_of_worship', 'point_of_interest', 'establishment']",4166,TRUE,church,-1,-1,15.4986294,73.8293612
CLOSED_TEMPORARILY,"Vanxim, Goa 403403, India",Igreja do Santo Cristo,-1,ChIJ2x85qiK-vzsRUDw7KSSFAE8,"{'compound_code': 'GWW6+5W Vanxim, Goa', 'global_code': '7J7MGWW6+5W'}",4.6,"['tourist_attraction', 'church', 'place_of_worship', 'point_of_interest', 'establishment']",15,TRUE,church,-1,-1,15.5454158,73.9122888
CLOSED_TEMPORARILY,"Unnamed Road, Gancim, Goa 403104, India",Church of St. Simon and St. Jude,-1,ChIJAQAAADG5vzsR0-v3w_JBk34,"{'compound_code': 'FW53+4W Gancim, Goa', 'global_code': '7J7MFW53+4W'}",4.7,"['church', 'place_of_worship', 'point_of_interest', 'establishment']",12,TRUE,church,-1,-1,15.4578137,73.9048465
CLOSED_TEMPORARILY,"Azossim, Goa 403104, India",St. Mathew’s Church,-1,ChIJ27wA3ky5vzsR94I0xorMKWU,"{'compound_code': 'FW7C+W9 Azossim, Goa', 'global_code': '7J7MFW7C+W9'}",4,"['church', 'place_of_worship', 'point_of_interest', 'establishment']",21,TRUE,church,-1,-1,15.4648456,73.9209214
CLOSED_TEMPORARILY,"Lake Rd, Goa Velha, Goa 403108, India","Our Lady of Guadalupe Church, Batim",-1,ChIJLUiqBzi5vzsR0ms87dKZ26M,"{'compound_code': 'CVXQ+M4 Goa Velha, Goa', 'global_code': '7J7MCVXQ+M4'}",4.4,"['church', 'place_of_worship', 'point_of_interest', 'establishment']",7,TRUE,church,-1,-1,15.4492491,73.8878209
CLOSED_TEMPORARILY,"Goa 403006, India","Santa Barbara Chapel, Chimbel",-1,ChIJ18r4YxS_vzsRTW_Me75mArQ,"{'compound_code': 'FVPC+PJ Tiswadi, Goa', 'global_code': '7J7MFVPC+PJ'}",5,"['church', 'place_of_worship', 'point_of_interest', 'establishment']",1,TRUE,church,-1,-1,15.4868303,73.8715935
CLOSED_TEMPORARILY,"Fr. Agnel’s Church, Goa Velha, Goa 403402, India",Our Lady Of Pilar Church,-1,ChIJc4cPWB-5vzsRB5tSVBRmjlw,"{'compound_code': 'CVRV+M8 Goa Velha, Goa', 'global_code': '7J7MCVRV+M8'}",4.8,"['church', 'place_of_worship', 'point_of_interest', 'establishment']",284,TRUE,church,-1,-1,15.4417474,73.8933282
CLOSED_TEMPORARILY,"Pilar Old Goa Rd, Fr. Agnel Church, Goa Velha, Goa 403402, India",Pilar Monastery Church,-1,ChIJNRs6M6a5vzsRoLXKUJqRjpc,"{'compound_code': 'CVVW+22 Goa Velha, Goa', 'global_code': '7J7MCVVW+22'}",5,"['church', 'place_of_worship', 'point_of_interest', 'establishment']",23,TRUE,church,-1,-1,15.4425424,73.8950025
CLOSED_TEMPORARILY,"Curca, Goa 403108, India",Our Lady of the Rosary Church,-1,ChIJgeZLWs-4vzsRf5xARtnZds0,"{'compound_code': 'FV2C+MR Curca, Goa', 'global_code': '7J7MFV2C+MR'}",4.5,"['tourist_attraction', 'church', 'place_of_worship', 'point_of_interest', 'establishment']",54,TRUE,church,-1,-1,15.4517266,73.8720281
CLOSED_TEMPORARILY,"Bambolim, Goa 403108, India",Our Lady of Belém Church,-1,ChIJwV4bBrS4vzsRPqy3OwtDDoI,"{'compound_code': 'FV45+PX Bambolim, Goa', 'global_code': '7J7MFV45+PX'}",4.5,"['church', 'place_of_worship', 'point_of_interest', 'establishment']",16,TRUE,church,-1,-1,15.456758,73.8599252
CLOSED_TEMPORARILY,"saude, Chorao, Goa 403102, India",Nossa Senhora De Saude Chapel,-1,ChIJ6RBreSy-vzsR3c_B1ebi8NQ,"{'compound_code': 'GVXR+JW Chorao, Goa', 'global_code': '7J7MGVXR+JW'}",4.3,"['church', 'place_of_worship', 'point_of_interest', 'establishment']",18,TRUE,church,-1,-1,15.5490948,73.8923639
CLOSED_TEMPORARILY,"Ponda - Apewal - Querim - Savoi - Verem – Betqui - Marcela, Orgao, Goa 403107, India",Holy Family Church Marcela,-1,ChIJQXA3rsu9vzsR0da5MOz71J0,"{'compound_code': 'GX94+4C Orgao, Goa', 'global_code': '7J7MGX94+4C'}",4.5,"['church', 'place_of_worship', 'point_of_interest', 'establishment']",58,TRUE,church,-1,-1,15.5178439,73.9560271
CLOSED_TEMPORARILY,"Salvador Do Mundo Chruch :, Saviour of the World :, Salvador Do Mundo, Bardez, Goa 403101, India",Salvador do Mundo Church,-1,ChIJTWfiWOy_vzsRXfQgIH9fVsk,"{'compound_code': 'GVM5+32 Donwaddo, Salvador Do Mundo, Bardez, Goa', 'global_code': '7J7MGVM5+32'}",4.4,"['church', 'place_of_worship', 'point_of_interest', 'establishment']",70,TRUE,church,-1,-1,15.532638,73.857521
CLOSED_TEMPORARILY,"Church Road, Belbhat, Chorao, Goa 403102, India",St Bartholomew's Church,-1,ChIJ8UYY29C_vzsRmc1yVq56HFc,"{'compound_code': 'GVWH+XQ Chorao, Goa', 'global_code': '7J7MGVWH+XQ'}",4.6,"['tourist_attraction', 'church', 'place_of_worship', 'point_of_interest', 'establishment']",65,TRUE,church,-1,-1,15.5474824,73.8794947
CLOSED_TEMPORARILY,"Goltim, Goa 403403, India",Juzuchi Doya Chakun,-1,ChIJo1HGuUW-vzsRju9Bz4vgluY,"{'compound_code': 'GWG3+84 Goltim, Goa', 'global_code': '7J7MGWG3+84'}",4.2,"['church', 'place_of_worship', 'point_of_interest', 'establishment']",9,TRUE,church,-1,-1,15.5257622,73.9028352
CLOSED_TEMPORARILY,"Cumbarjua, Goa 403107, India",HANUMAN TEMPLE,-1,ChIJQw7__NK9vzsRBcpxNnbxic8,"{'compound_code': 'GW8V+8X Cumbarjua, Goa', 'global_code': '7J7MGW8V+8X'}",4.8,"['hindu_temple', 'place_of_worship', 'point_of_interest', 'establishment']",12,TRUE,hindu_temple,-1,-1,15.5157974,73.9449969
CLOSED_TEMPORARILY,"Mangaddo, Carambolim, Gandaulim, Goa 403110, India",Shri Datta Mandir,-1,ChIJfwT2TU29vzsR76sT8IIW3iE,"{'compound_code': 'GW3Q+4V Carambolim, Corlim, Goa', 'global_code': '7J7MGW3Q+4V'}",5,"['hindu_temple', 'place_of_worship', 'point_of_interest', 'establishment']",1,TRUE,hindu_temple,-1,-1,15.5027548,73.9396851
CLOSED_TEMPORARILY,"Piedade, Goa 403403, India",Shri Ram,-1,ChIJCUFjgka-vzsRaTt4UQFde_w,"{'compound_code': 'GWH3+CJ Piedade, Goa', 'global_code': '7J7MGWH3+CJ'}",5,"['hindu_temple', 'place_of_worship', 'point_of_interest', 'establishment']",2,TRUE,hindu_temple,-1,-1,15.5285949,73.904085
CLOSED_TEMPORARILY,"Golwada, Goa 403107, India",shri pandurang devastan\ manda/brhameshwar yuvak shang mandap,-1,ChIJPVPuuka_vzsRMw-dNoZLn48,"{'compound_code': 'GWMM+Q8 Golwada, Goa', 'global_code': '7J7MGWMM+Q8'}",4.7,"['hindu_temple', 'place_of_worship', 'point_of_interest', 'establishment']",3,TRUE,hindu_temple,-1,-1,15.5344691,73.9332963
CLOSED_TEMPORARILY,"Candola, Goa 403107, India",Vishnu temple,-1,ChIJk1cXcmq9vzsR1diCI6GrleE,"{'compound_code': 'GX88+6G Candola, Goa', 'global_code': '7J7MGX88+6G'}",0,"['hindu_temple', 'place_of_worship', 'point_of_interest', 'establishment']",0,TRUE,hindu_temple,-1,-1,15.5155848,73.9663657
CLOSED_TEMPORARILY,"Tivrem, Goa 403107, India",Mahalasa temple,-1,ChIJDcR_gUO8vzsRUbFl0PsiOSA,"{'compound_code': 'FXX9+46 Tivrem, Goa', 'global_code': '7J7MFXX9+46'}",4.5,"['hindu_temple', 'place_of_worship', 'point_of_interest', 'establishment']",40,TRUE,hindu_temple,-1,-1,15.4978055,73.9681192
CLOSED_TEMPORARILY,"Ribandar, Goa 403006, India",Shri Vithal Mandir,-1,ChIJby2YY2q_vzsR_1-DpUKH7FM,"{'compound_code': 'FVXJ+P8 Ribandar, Goa', 'global_code': '7J7MFVXJ+P8'}",5,"['hindu_temple', 'place_of_worship', 'point_of_interest', 'establishment']",1,TRUE,hindu_temple,-1,-1,15.4993702,73.8808693
CLOSED_TEMPORARILY,"Marcela, Goa, India",Saibaba Mandir,-1,ChIJe-HQ6sy9vzsRwQsThgCcmSA,"{'compound_code': 'GX82+6R Orgao, Goa', 'global_code': '7J7MGX82+6R'}",4.6,"['hindu_temple', 'place_of_worship', 'point_of_interest', 'establishment']",39,TRUE,hindu_temple,-1,-1,15.5155928,73.9521115
CLOSED_TEMPORARILY,"Manas wada, kundaim, Goa 403115, India",Mallikarjun Temple,-1,ChIJX7PjSvO7vzsRDVQIyDNML60,"{'compound_code': 'FX65+VP Carambolim, Corlim, Goa', 'global_code': '7J7MFX65+VP'}",4.3,"['hindu_temple', 'place_of_worship', 'point_of_interest', 'establishment']",4,TRUE,hindu_temple,-1,-1,15.4621567,73.9593719
CLOSED_TEMPORARILY,"Naroa, Goa 403403, India",Koti Tirth Tali,-1,ChIJM2bvRHK-vzsRzszLgmWgj9I,"{'compound_code': 'GWJG+CF Naroa, Goa', 'global_code': '7J7MGWJG+CF'}",4.4,"['hindu_temple', 'place_of_worship', 'point_of_interest', 'establishment']",41,TRUE,hindu_temple,-1,-1,15.5311092,73.9262459
CLOSED_TEMPORARILY,"Bhatlem, Altino Road, Near Sati Bhavani Temple Behind, Electricity Colony, Panaji, Goa 403001, India",Parmarth Niketan Goa Bhatlem,-1,ChIJIS4pUCvBvzsRtjvK6pRr-rc,"{'compound_code': 'FRPH+3G Panaji, Goa', 'global_code': '7J7MFRPH+3G'}",0,"['hindu_temple', 'place_of_worship', 'point_of_interest', 'establishment']",0,TRUE,hindu_temple,-1,-1,15.4852402,73.8287559
CLOSED_TEMPORARILY,"Bazarwada, Marcel, Orgao, Goa 403107, India",Vitthal Mandir Bazarwada,-1,ChIJscLHNMu9vzsRb2LQUfC9ZLY,"{'compound_code': 'GX74+P4 Marcel, Orgao, Goa', 'global_code': '7J7MGX74+P4'}",4.4,"['hindu_temple', 'place_of_worship', 'point_of_interest', 'establishment']",5,TRUE,hindu_temple,-1,-1,15.514311,73.9553553
CLOSED_TEMPORARILY,"Patto, Patto Centre, Panaji, Goa 403001, India",Sai Baba Mandir,-1,ChIJ5eh3PmvBvzsR3fBGnYM1he4,"{'compound_code': 'FRWP+R9 Patto Centre, Panaji, Goa', 'global_code': '7J7MFRWP+R9'}",0,"['hindu_temple', 'place_of_worship', 'point_of_interest', 'establishment']",0,TRUE,hindu_temple,-1,-1,15.4970274,73.8359592
CLOSED_TEMPORARILY,"MDR22, Narve, Maem, Goa 403403, India",Paramartha Niketan Narve,-1,ChIJPfMEob-_vzsRQ3ai7XGWKuo,"{'compound_code': 'HW3F+27 Narve, Maem, Goa', 'global_code': '7J7MHW3F+27'}",0,"['hindu_temple', 'place_of_worship', 'point_of_interest', 'establishment']",0,TRUE,hindu_temple,-1,-1,15.5525065,73.9232488
CLOSED_TEMPORARILY,"Chorao, Goa 403523, India",Gopalkrishna Temple,-1,ChIJecUJTYCVvzsR-Km-Ut8Vn6c,"{'compound_code': 'HV5R+2C Chorao, Goa', 'global_code': '7J7MHV5R+2C'}",4.4,"['hindu_temple', 'place_of_worship', 'point_of_interest', 'establishment']",5,TRUE,hindu_temple,-1,-1,15.5576211,73.8910315
CLOSED_TEMPORARILY,"Kapileswari - Kavlem Rd, Donshiwado, Ponda, Goa 403401, India","Shree Shantadurga Mandir, Kavlem",-1,ChIJrYu521bAvzsRMZ5n0rjkYnA,"{'compound_code': '9XWP+F6 Donshiwado, Bandoda, Goa', 'global_code': '7J7M9XWP+F6'}",4.6,"['hindu_temple', 'tourist_attraction', 'place_of_worship', 'point_of_interest', 'establishment']",4299,TRUE,hindu_temple,-1,-1,15.3961303,73.9855837
CLOSED_TEMPORARILY,"Khadapwada, Cumbarjua, Goa 403107, India",Ganapati Temple Cumbharjua,-1,ChIJW9b7n9K9vzsRNm8gkBILjSM,"{'compound_code': 'GW8X+33 Cumbarjua, Goa', 'global_code': '7J7MGW8X+33'}",4.7,"['hindu_temple', 'place_of_worship', 'point_of_interest', 'establishment']",26,TRUE,hindu_temple,-1,-1,15.5151403,73.9477059
CLOSED_TEMPORARILY,"Caraim, Goa 403523, India",Wadeshwar Temple,-1,ChIJJSyBDyq-vzsRt452bIOpREc,"{'compound_code': 'HV3V+VJ Caraim, Goa', 'global_code': '7J7MHV3V+VJ'}",4.8,"['hindu_temple', 'place_of_worship', 'point_of_interest', 'establishment']",4,TRUE,hindu_temple,-1,-1,15.5546295,73.8940925
CLOSED_TEMPORARILY,"Amboi Waddo-Diwar, near Devaaya Hotel, Sao Matias VP, Goa 403403, India",Dattatraya Temple,-1,ChIJMwnIMT--vzsRwNCBQ_5tMxU,"{'compound_code': 'GWP4+5R Sao Matias VP, Goa', 'global_code': '7J7MGWP4+5R'}",4.1,"['hindu_temple', 'place_of_worship', 'point_of_interest', 'establishment']",7,TRUE,hindu_temple,-1,-1,15.535461,73.9070949
OPERATIONAL,"Esmeralda Greens, Ella, Goa 403110, India","Kinara Classic,Deluxe AC and Non Ac rooms",{'open_now': True},ChIJQaSScuu-vzsRyCu573lvUbE,"{'compound_code': 'FWV6+23 Ella, Goa', 'global_code': '7J7MFWV6+23'}",4.1,"['lodging', 'point_of_interest', 'establishment']",41,-1,lodging,-1,-1,15.4925728,73.9101748
OPERATIONAL,"95-96/ Land mark Developer Bainguinim, velha, Goa 403402, India",Gomes Pousada Guest House,{'open_now': True},ChIJUQEypuu-vzsRC3FAQVIJNF0,"{'compound_code': 'FWR5+PQ Bainguinim, Goa', 'global_code': '7J7MFWR5+PQ'}",3.7,"['lodging', 'point_of_interest', 'establishment']",107,-1,lodging,-1,-1,15.4917799,73.9093798
OPERATIONAL,"1 Chimbel, near swami samarth temple, Ribandar, Goa 403006, India",OYO 45477 Vailankanni Nature's Inn,-1,ChIJE9UNeXS_vzsRt-dmF2VjwMk,"{'compound_code': 'FVQ7+22 Ribandar, Goa', 'global_code': '7J7MFVQ7+22'}",4.3,"['lodging', 'point_of_interest', 'establishment']",61,-1,lodging,-1,-1,15.487516,73.862525
OPERATIONAL,"Opposite Grand Hyatt, Bambolim, Goa 403206, India",Casa De Bambolim,-1,ChIJiabh0a-4vzsRz-7Ps6SZ7uo,"{'compound_code': 'FV23+V6 Bambolim, Goa', 'global_code': '7J7MFV23+V6'}",4.1,"['lodging', 'point_of_interest', 'establishment']",16,-1,lodging,-1,-1,15.4521989,73.853024
OPERATIONAL,"Kamat 3BHK, NH748, Bainguinim, Goa 403001, India",OYO 62455 Blissful Stay,-1,ChIJY__rODK_vzsRagShaqU9GVA,"{'compound_code': 'FWQ4+68 Bainguinim, Goa', 'global_code': '7J7MFWQ4+68'}",5,"['lodging', 'point_of_interest', 'establishment']",1,-1,lodging,-1,-1,15.488039,73.905846
OPERATIONAL,"House No. 225/3 Musqabat Ella, Goa Velha, Goa 403402, India",Shoolin Homestay,{'open_now': True},ChIJkWX6Eve_vzsRBpOukbu28q8,"{'compound_code': 'FWV9+JW Goa Velha, Goa', 'global_code': '7J7MFWV9+JW'}",4.4,"['lodging', 'point_of_interest', 'establishment']",12,-1,lodging,-1,-1,15.4940389,73.9197688
OPERATIONAL,"House No. K/276/1, Shed No Villa A-2 Old Goa, Panjim, Goa, 403402, India",OYO 10402 Relaxing Stay Near Mandovi River,{'open_now': True},ChIJVcFbnhy_vzsRNjatKkINBvA,"{'compound_code': 'FVWM+49 Ribandar, Goa', 'global_code': '7J7MFVWM+49'}",4.4,"['lodging', 'point_of_interest', 'establishment']",34,-1,lodging,-1,-1,15.4952787,73.8834894
OPERATIONAL,"217, Near, Charmanos Badem, Donwaddo, Salvador do Mundo, Goa 403101, India",CASA BOUTIQUE HOTELS,-1,ChIJq6qq1vm_vzsRUntgHWcT3_Q,"{'compound_code': 'GRRW+63 Donwaddo, Salvador do Mundo, Goa', 'global_code': '7J7MGRRW+63'}",4.3,"['lodging', 'point_of_interest', 'establishment']",6,-1,lodging,-1,-1,15.5405196,73.8452145
OPERATIONAL,"near Railway Station, Carambolim, goa, Goa 403110, India",SPOT ON 36499 Shubhankar Heritage,{'open_now': True},ChIJl10JL_G_vzsROtOehDBL2tQ,"{'compound_code': 'FWV9+Q8 Carambolim, Corlim, Goa', 'global_code': '7J7MFWV9+Q8'}",4,"['lodging', 'point_of_interest', 'establishment']",23,-1,lodging,-1,-1,15.4944686,73.9183464
OPERATIONAL,"Divar Island, Goa 403403, India",Mercure Goa Devaaya Retreat,{'open_now': True},ChIJ5TRcZI7AvzsRHWGS9Ms0bRQ,"{'compound_code': 'GWH4+3J Piedade, Goa', 'global_code': '7J7MGWH4+3J'}",4.5,"['lodging', 'point_of_interest', 'establishment']",47,-1,lodging,-1,-1,15.5276933,73.9065883
OPERATIONAL,"St. Lawrence church, Casa Bhatt, Agacaim, Near Coco Loco Village, Tiswadi, Tiswadi, Goa 403204, India",Brit's Palace Goa,{'open_now': True},ChIJDYYVzA-5vzsRWEEVi4qGl5c,"{'compound_code': 'CWH3+X8 Tiswadi, Goa', 'global_code': '7J7MCWH3+X8'}",4.3,"['lodging', 'point_of_interest', 'establishment']",16,-1,lodging,-1,-1,15.429885,73.903359
OPERATIONAL,"145, Caribhat, Carambolim, Corlim, Goa 403110, India",OYO 18687 Lake View 3BHK Villa Carambolim,-1,ChIJ73AESke_vzsR6prQa4cjXT8,"{'compound_code': 'FWQJ+Q5 Carambolim, Corlim, Goa', 'global_code': '7J7MFWQJ+Q5'}",4.3,"['lodging', 'point_of_interest', 'establishment']",24,-1,lodging,-1,-1,15.489468,73.930486
OPERATIONAL,"National Hwy 4A Bypass Rd, opposite Divar Ferry, Ribandar, Goa 403006, India",OYO 49000 River Isle Guest House,{'open_now': True},ChIJl024hQW_vzsRpPbJvrN58bM,"{'compound_code': 'GV2G+4W Ribandar, Goa', 'global_code': '7J7MGV2G+4W'}",4.1,"['lodging', 'bar', 'restaurant', 'food', 'point_of_interest', 'establishment']",372,-1,lodging,-1,-1,15.5003559,73.8772795
OPERATIONAL,"UG2,F2 Flat UG2(First Floor) and F2(Second Floor), Lawande Panthea, Curca, Goa 403202, India",OYO 26700 Greek Style 3BHK,-1,ChIJK6YGaCm5vzsRgUFk8_qghrc,"{'compound_code': 'FV39+69 Curca, Goa', 'global_code': '7J7MFV39+69'}",4.9,"['lodging', 'point_of_interest', 'establishment']",17,-1,lodging,-1,-1,15.4530429,73.8684869
OPERATIONAL,"Chinch Wada, Chimbel,Tui Wadi, Panjim, Goa, 403001, India",Village Inn,{'open_now': True},ChIJwyhIew2_vzsR31xHqo-6ybs,"{'compound_code': 'FVW9+P3 Ribandar, Goa', 'global_code': '7J7MFVW9+P3'}",3.9,"['lodging', 'point_of_interest', 'establishment']",162,-1,lodging,-1,-1,15.4968262,73.8676715
OPERATIONAL,"Villa No -9,Magia ARR, Salvedor Do Mundo, Bardez, North Goa, Goa, Goa, 403101, India",SuryaVillaGoa,{},ChIJc6DP4fG_vzsRvMOgeLuVrtc,"{'compound_code': 'GVP3+GH Donwaddo, Salvador Do Mundo, Bardez, Goa', 'global_code': '7J7MGVP3+GH'}",4.3,"['lodging', 'point_of_interest', 'establishment']",24,-1,lodging,-1,-1,15.5362937,73.8539161
